$YXXDR,A,37.55,D,Yaw,A,1.67,D,Pitch,A,1.07,D,Roll*52
$HEHDT,37.52,T*2C
$TIROT,-20.96,A*1B
$GPGGA,184131.400,4915.49641,N,00015.43326,W,2,25,0.50,56.22,M,47.40,M,,*42
$GPGLL,4915.49641,N,00015.43326,W,184131.400,A,D*47
$GPRMC,184131.400,A,4915.49641,N,00015.43326,W,4.25,39.88,160623,0.71,E,D*14
$GPVTG,39.88,T,,M,4.25,N,7.87,K,D*09
$AGRSA,-1.99,A,,V*63
$YXXDR,D,-0.02,M,Heave*28
$HEHDT,37.49,T*26
$TIROT,-18.70,A*18
$GPGGA,184131.700,4915.49666,N,00015.43294,W,2,25,0.50,56.29,M,47.40,M,,*47
$GPGLL,4915.49666,N,00015.43294,W,184131.700,A,D*49
$GPRMC,184131.700,A,4915.49666,N,00015.43294,W,4.25,39.88,160623,0.71,E,D*1A
$GPVTG,39.88,T,,M,4.25,N,7.87,K,D*09
$AGRSA,-2.02,A,,V*62
$WIMWV,10.99,R,8.18,N,A*13
$WIMWV,10.99,R,8.18,N,A*13
$YXXDR,A,37.48,D,Yaw,A,1.70,D,Pitch,A,1.02,D,Roll*5D
$YXXDR,D,-0.02,M,Heave*28
$HEHDT,37.48,T*27
$TIROT,-17.97,A*1E
$GPGGA,184131.800,4915.49675,N,00015.43284,W,2,25,0.50,56.29,M,47.40,M,,*4B
$GPGLL,4915.49675,N,00015.43284,W,184131.800,A,D*45
$GPRMC,184131.800,A,4915.49675,N,00015.43284,W,4.25,39.88,160623,0.71,E,D*16
$GPVTG,39.88,T,,M,4.25,N,7.87,K,D*09
$AGRSA,-1.93,A,,V*69
$YXXDR,A,37.47,D,Yaw,A,1.68,D,Pitch,A,1.03,D,Roll*5A
$GPGGA,184131.900,4915.49689,N,00015.43266,W,2,25,0.50,56.29,M,47.40,M,,*45
$GPGLL,4915.49689,N,00015.43266,W,184131.900,A,D*4B
$GPRMC,184131.900,A,4915.49689,N,00015.43266,W,4.25,39.86,160623,0.71,E,D*16
$GPVTG,39.86,T,,M,4.25,N,7.87,K,D*07
$AGRSA,-1.96,A,,V*6C
$WIMWV,10.99,R,8.18,N,A*13
$WIMWV,10.99,R,8.18,N,A*13
$YXXDR,A,37.45,D,Yaw,A,1.68,D,Pitch,A,1.05,D,Roll*5E
$YXXDR,D,-0.02,M,Heave*28
$GPGGA,184132.000,4915.49698,N,00015.43256,W,2,25,0.50,56.29,M,47.40,M,,*4C
$GPGLL,4915.49698,N,00015.43256,W,184132.000,A,D*42
$GPRMC,184132.000,A,4915.49698,N,00015.43256,W,4.25,39.86,160623,0.71,E,D*1F
$GPVTG,39.86,T,,M,4.25,N,7.87,K,D*07
$AGRSA,-1.99,A,,V*63
$YXXDR,A,37.46,D,Yaw,A,1.68,D,Pitch,A,1.05,D,Roll*5D
$YXXDR,D,-0.02,M,Heave*28
$GPGGA,184132.100,4915.49707,N,00015.43245,W,2,25,0.50,56.29,M,47.40,M,,*48
$GPGLL,4915.49707,N,00015.43245,W,184132.100,A,D*46
$GPRMC,184132.100,A,4915.49707,N,00015.43245,W,4.25,39.84,160623,0.71,E,D*19
$GPVTG,39.84,T,,M,4.25,N,7.87,K,D*05
$VDVBW,,,A,4.24,0.04,A,,A,0.12,A*4A
$AGRSA,-1.93,A,,V*69
$WIMWV,10.99,R,8.18,N,A*13
$WIMWV,10.99,R,8.18,N,A*13
$YXXDR,A,37.47,D,Yaw,A,1.67,D,Pitch,A,1.06,D,Roll*50
$YXXDR,D,-0.02,M,Heave*28
$HEHDT,37.47,T*28
$TIROT,-15.02,A*10
$YXXDR,A,37.47,D,Yaw,A,1.66,D,Pitch,A,1.06,D,Roll*51
$YXXDR,D,-0.02,M,Heave*28
$WIXDR,C,22.07,C,Air,P,1.01829,B,Baro*22
$YXXDR,A,37.47,D,Yaw,A,1.66,D,Pitch,A,1.05,D,Roll*52
$YXXDR,D,-0.02,M,Heave*28
$GPGGA,184132.400,4915.49733,N,00015.43213,W,2,25,0.50,56.29,M,47.40,M,,*49
$GPGLL,4915.49733,N,00015.43213,W,184132.400,A,D*47
$GPRMC,184132.400,A,4915.49733,N,00015.43213,W,4.25,39.82,160623,0.71,E,D*1E
$GPVTG,39.82,T,,M,4.25,N,7.87,K,D*03
$AGRSA,-1.94,A,,V*6E
$YXXDR,A,37.48,D,Yaw,A,1.66,D,Pitch,A,1.04,D,Roll*5C
$YXXDR,D,-0.02,M,Heave*28
$YXXDR,A,37.49,D,Yaw,A,1.66,D,Pitch,A,1.05,D,Roll*5C
$YXXDR,D,-0.02,M,Heave*28
$HEHDT,37.49,T*26
$TIROT,-12.47,A*16
$GPGGA,184132.600,4915.49750,N,00015.43191,W,2,25,0.50,56.29,M,47.40,M,,*47
$GPGLL,4915.49750,N,00015.43191,W,184132.600,A,D*49
$GPRMC,184132.600,A,4915.49750,N,00015.43191,W,4.25,39.79,160623,0.71,E,D*14
$GPVTG,39.79,T,,M,4.25,N,7.87,K,D*07
$VDVBW,,,A,4.25,0.04,A,,A,0.12,A*4B
$AGRSA,-1.93,A,,V*69
$YXXDR,A,37.51,D,Yaw,A,1.66,D,Pitch,A,1.06,D,Roll*56
$YXXDR,D,-0.02,M,Heave*28
$GPGGA,184132.800,4915.49768,N,00015.43170,W,2,25,0.50,56.29,M,47.40,M,,*4D
$GPGLL,4915.49768,N,00015.43170,W,184132.800,A,D*43
$GPRMC,184132.800,A,4915.49768,N,00015.43170,W,4.25,39.79,160623,0.71,E,D*1E
$GPVTG,39.79,T,,M,4.25,N,7.87,K,D*07
$AGRSA,-1.96,A,,V*6C
$YXXDR,A,37.52,D,Yaw,A,1.67,D,Pitch,A,1.08,D,Roll*5A
$GPGSA,A,3,03,04,06,07,09,11,16,19,20,26,30,36,0.70,0.50,0.50*05
$GPGSV,4,1,13,03,14,104,44,04,44,059,44,06,63,221,47,07,36,157,48*79
$GPGSV,4,2,13,09,79,063,51,11,42,301,43,16,03,066,35,19,07,220,41*70
$GPGSV,4,3,13,20,21,295,43,26,05,035,38,30,13,181,42,36,26,140,44*73
$GPGSV,4,4,13,49,33,172,47*41
$YXXDR,D,-0.02,M,Heave*28
$HEHDT,37.52,T*2C
$TIROT,-10.58,A*1A
$GPGGA,184133.000,4915.49790,N,00015.43144,W,2,25,0.50,56.29,M,47.40,M,,*44
$GPGLL,4915.49790,N,00015.43144,W,184133.000,A,D*4A
$GPRMC,184133.000,A,4915.49790,N,00015.43144,W,4.25,39.75,160623,0.71,E,D*1B
$GPVTG,39.75,T,,M,4.25,N,7.87,K,D*0B
$AGRSA,-1.94,A,,V*6E
$YXXDR,A,37.58,D,Yaw,A,1.69,D,Pitch,A,1.08,D,Roll*5E
$YXXDR,D,-0.02,M,Heave*28
$HEHDT,37.58,T*26
$TIROT,-9.24,A*29
$YXXDR,D,-0.02,M,Heave*28
$HEHDT,37.60,T*2D
$TIROT,-8.53,A*28
$YXXDR,A,37.63,D,Yaw,A,1.70,D,Pitch,A,1.06,D,Roll*50
$YXXDR,D,-0.02,M,Heave*28
$YXXDR,A,37.69,D,Yaw,A,1.70,D,Pitch,A,1.06,D,Roll*5A
$YXXDR,D,-0.02,M,Heave*28
$HEHDT,37.69,T*24
$TIROT,-6.23,A*21
$YXXDR,A,37.75,D,Yaw,A,1.70,D,Pitch,A,1.06,D,Roll*57
$YXXDR,D,-0.02,M,Heave*28
$HEHDT,37.75,T*29
$TIROT,-4.50,A*27
$YXXDR,A,37.81,D,Yaw,A,1.69,D,Pitch,A,1.05,D,Roll*57
$GPGSA,A,3,03,04,06,07,09,11,16,19,20,26,30,36,0.70,0.50,0.50*05
$GPGSV,4,1,13,03,14,104,44,04,44,059,44,06,63,221,47,07,36,157,48*79
$GPGSV,4,2,13,09,79,063,51,11,42,301,43,16,03,066,36,19,07,220,41*73
$GPGSV,4,3,13,20,21,295,43,26,05,035,38,30,13,181,42,36,26,140,44*73
$GPGSV,4,4,13,49,33,172,47*41
$YXXDR,D,-0.02,M,Heave*28
$HEHDT,37.81,T*22
$TIROT,-2.63,A*21
$GPGGA,184134.600,4915.49932,N,00015.42970,W,2,25,0.50,56.29,M,47.40,M,,*4D
$GPGLL,4915.49932,N,00015.42970,W,184134.600,A,D*43
$GPRMC,184134.600,A,4915.49932,N,00015.42970,W,4.25,39.41,160623,0.71,E,D*15
$GPVTG,39.41,T,,M,4.25,N,7.87,K,D*0C
$VDVBW,,,A,4.25,0.06,A,,A,0.11,A*4A
$AGRSA,-2.39,A,,V*6A
$GPGGA,184134.800,4915.49948,N,00015.42949,W,2,25,0.50,56.29,M,47.40,M,,*44
$GPGLL,4915.49948,N,00015.42949,W,184134.800,A,D*4A
$GPRMC,184134.800,A,4915.49948,N,00015.42949,W,4.25,39.41,160623,0.71,E,D*1C
$GPVTG,39.41,T,,M,4.25,N,7.87,K,D*0C
$AGRSA,-2.32,A,,V*61
$YXXDR,A,38.11,D,Yaw,A,1.68,D,Pitch,A,1.00,D,Roll*55
$HEHDT,38.17,T*22
$TIROT,8.38,A*08
$GPGGA,184135.100,4915.49978,N,00015.42907,W,2,25,0.50,56.29,M,47.40,M,,*45
$GPGLL,4915.49978,N,00015.42907,W,184135.100,A,D*4B
$GPRMC,184135.100,A,4915.49978,N,00015.42907,W,4.25,39.30,160623,0.71,E,D*1B
$GPVTG,39.30,T,,M,4.25,N,7.87,K,D*0A
$VDVBW,,,A,4.25,0.06,A,,A,0.10,A*4B
$AGRSA,-2.34,A,,V*67
$WIMWV,10.99,R,8.59,N,A*16
$WIMWV,10.99,R,8.59,N,A*16
$GPGGA,184135.300,4915.49996,N,00015.42885,W,2,25,0.50,56.29,M,47.40,M,,*4C
$GPGLL,4915.49996,N,00015.42885,W,184135.300,A,D*42
$GPRMC,184135.300,A,4915.49996,N,00015.42885,W,4.25,39.30,160623,0.71,E,D*12
$GPVTG,39.30,T,,M,4.25,N,7.87,K,D*0A
$AGRSA,-2.37,A,,V*64
$WIMWV,10.99,R,8.59,N,A*16
$WIMWV,10.99,R,8.59,N,A*16
$WIXDR,C,22.50,C,Air,P,1.01739,B,Baro*2E
$WIXDR,C,22.50,C,Air,P,1.0$YXXDR,A,38.32,D,Yaw,A,1.67,D,Pitch,A,0.99,D,Roll*5A
$YXXDR,D,-0.02,M,Heave*28
$GPGGA,184135.700,4915.50030,N,00015.42842,W,2,25,0.50,56.36,M,47.40,M,,*40
$GPGLL,4915.50030,N,00015.42842,W,184135.700,A,D*40
$GPRMC,184135.700,A,4915.50030,N,00015.42842,W,4.25,39.19,160623,0.71,E,D*1B
$GPVTG,39.19,T,,M,4.25,N,7.87,K,D*01
$AGRSA,-2.58,A,,V*6D
$WIMWV,9.99,R,8.68,N,A*2C
$WIMWV,9.99,R,8.68,N,A*2C
$YXXDR,A,38.40,D,Yaw,A,1.63,D,Pitch,A,0.95,D,Roll*57
$YXXDR,D,-0.02,M,Heave*28
$YXXDR,A,38.42,D,Yaw,A,1.64,D,Pitch,A,0.93,D,Roll*54
$GPGSA,A,3,03,04,06,07,09,11,16,19,20,26,30,36,0.70,0.50,0.50*05
$GPGSV,4,1,13,03,14,104,44,04,44,059,44,06,63,221,47,07,36,157,48*79
$GPGSV,4,2,13,09,79,063,51,11,42,301,43,16,03,066,35,19,07,220,42*73
$GPGSV,4,3,13,20,21,295,42,26,05,035,38,30,13,181,42,36,26,140,44*72
$GPGSV,4,4,13,49,33,172,47*41
$YXXDR,D,-0.02,M,Heave*28
$HEHDT,38.42,T*22
$TIROT,13.33,A*39
$GPGGA,184135.900,4915.50053,N,00015.42810,W,2,25,0.50,56.36,M,47.40,M,,*4C
$GPGLL,4915.50053,N,00015.42810,W,184135.900,A,D*4C
$GPRMC,184135.900,A,4915.50053,N,00015.42810,W,4.25,39.13,160623,0.71,E,D*1D
$GPVTG,39.13,T,,M,4.25,N,7.87,K,D*0B
$AGRSA,-2.69,A,,V*6F
$WIMWV,9.99,R,8.18,N,A*2B
$WIMWV,9.99,R,8.18,N,A*2B
$YXXDR,A,38.43,D,Yaw,A,1.63,D,Pitch,A,0.92,D,Roll*53
$GPGGA,184136.100,4915.50069,N,00015.42789,W,2,25,0.50,56.36,M,47.40,M,,*41
$GPGLL,4915.50069,N,00015.42789,W,184136.100,A,D*41
$GPRMC,184136.100,A,4915.50069,N,00015.42789,W,4.25,39.08,160623,0.71,E,D*1A
$GPVTG,39.08,T,,M,4.25,N,7.87,K,D*01
$VDVBW,,,A,4.26,0.06,A,,A,0.07,A*4E
$AGRSA,-2.66,A,,V*60
$WIMWV,9.99,R,8.18,N,A*2B
$WIMWV,9.99,R,8.18,N,A*2B
$YXXDR,A,38.47,D,Yaw,A,1.66,D,Pitch,A,0.91,D,Roll*51
$YXXDR,D,-0.02,M,Heave*28
$HEHDT,38.48,T*28
$TIROT,15.17,A*39
$GPGGA,184136.300,4915.50086,N,00015.42768,W,2,25,0.50,56.36,M,47.40,M,,*4D
$GPGLL,4915.50086,N,00015.42768,W,184136.300,A,D*4D
$GPRMC,184136.300,A,4915.50086,N,00015.42768,W,4.25,39.08,160623,0.71,E,D*16
$GPVTG,39.08,T,,M,4.25,N,7.87,K,D*01
$AGRSA,-2.63,A,,V*65
$WIMWV,9.99,R,8.18,N,A*2B
$WIMWV,9.99,R,8.18,N,A*2B
$WIXDR,C,22.50,C,Air,P,1.01739,B,Baro*2E
$WIXDR,C,22.50,C,Air,P,1.01700,B,Baro*24
$WIXDR,C,22.07,C,Air,P,1.01833,B,Baro*29
$YXXDR,A,38.48,D,Yaw,A,1.72,D,Pitch,A,0.91,D,Roll*5B
$YXXDR,D,-0.02,M,Heave*28
$GPGGA,184136.500,4915.50103,N,00015.42746,W,2,25,0.50,56.36,M,47.40,M,,*4B
$GPGLL,4915.50103,N,00015.42746,W,184136.500,A,D*4B
$GPRMC,184136.500,A,4915.50103,N,00015.42746,W,4.25,39.04,160623,0.71,E,D*1C
$GPVTG,39.04,T,,M,4.25,N,7.87,K,D*0D
$AGRSA,-2.60,A,,V*66
$WIMWV,9.99,R,8.08,N,A*2A
$WIMWV,9.99,R,8.08,N,A*2A
$GPZDA,184136.580,16,06,2023,,*50
$YXXDR,A,38.50,D,Yaw,A,1.75,D,Pitch,A,0.89,D,Roll*5C
$YXXDR,D,-0.03,M,Heave*29
$GPGGA,184136.700,4915.50120,N,00015.42724,W,2,25,0.50,56.36,M,47.40,M,,*4C
$GPGLL,4915.50120,N,00015.42724,W,184136.700,A,D*4C
$GPRMC,184136.700,A,4915.50120,N,00015.42724,W,4.25,38.99,160623,0.71,E,D*1E
$GPVTG,38.99,T,,M,4.25,N,7.87,K,D*08
$AGRSA,-2.69,A,,V*6F
$WIMWV,9.99,R,8.08,N,A*2A
$WIMWV,9.99,R,8.08,N,A*2A
$YXXDR,A,38.51,D,Yaw,A,1.75,D,Pitch,A,0.90,D,Roll*55
$YXXDR,D,-0.02,M,Heave*28
$YXXDR,A,38.52,D,Yaw,A,1.74,D,Pitch,A,0.89,D,Roll*5F
$HEHDT,38.52,T*23
$TIROT,15.61,A*38
$GPGGA,184137.100,4915.50163,N,00015.42666,W,2,25,0.50,56.36,M,47.40,M,,*4B
$GPGLL,4915.50163,N,00015.42666,W,184137.100,A,D*4B
$GPRMC,184137.100,A,4915.50163,N,00015.42666,W,4.25,38.91,160623,0.71,E,D*11
$GPVTG,38.91,T,,M,4.25,N,7.87,K,D*00
$VDVBW,,,A,4.26,0.07,A,,A,0.05,A*4D
$AGRSA,-2.78,A,,V*6F
$WIMWV,9.99,R,8.08,N,A*2A
$WIMWV,9.99,R,8.08,N,A*2A
$YXXDR,A,38.53,D,Yaw,A,1.74,D,Pitch,A,0.89,D,Roll*5E
$HEHDT,38.53,T*22
$TIROT,15.00,A*3F
$GPGGA,184137.300,4915.50179,N,00015.42644,W,2,25,0.50,56.36,M,47.40,M,,*42
$GPGLL,4915.50179,N,00015.42644,W,184137.300,A,D*42
$GPRMC,184137.300,A,4915.50179,N,00015.42644,W,4.25,38.91,160623,0.71,E,D*18
$GPVTG,38.91,T,,M,4.25,N,7.87,K,D*00
$AGRSA,-2.69,A,,V*6F
$WIMWV,9.99,R,8.08,N,A*2A
$WIMWV,9.99,R,8.08,N,A*2A
$WIXDR,C,22.50,C,Air,P,1.01739,B,Baro*2E
$WIXDR,C,22.50,C,Air,P,1.01700,B,Baro*24
$WIXDR,C,22.07,C,Air,P,1.01833,B,Baro*29
$YXXDR,A,38.54,D,Yaw,A,1.73,D,Pitch,A,0.92,D,Roll*54
$YXXDR,D,-0.02,M,Heave*28
$YXXDR,A,38.56,D,Yaw,A,1.71,D,Pitch,A,0.99,D,Roll*5F
$YXXDR,D,-0.02,M,Heave*28
$HEHDT,38.56,T*27
$TIROT,12.74,A*3B
$GPGGA,184137.800,4915.50221,N,00015.42590,W,2,25,0.50,56.49,M,47.40,M,,*45
$GPGLL,4915.50221,N,00015.42590,W,184137.800,A,D*4D
$GPRMC,184137.800,A,4915.50221,N,00015.42590,W,4.25,38.85,160623,0.71,E,D*12
$GPVTG,38.85,T,,M,4.25,N,7.87,K,D*05
$AGRSA,-2.78,A,,V*6F
$YXXDR,A,38.55,D,Yaw,A,1.72,D,Pitch,A,1.03,D,Roll*5D
$GPGSA,A,3,03,04,06,07,09,11,16,19,20,26,30,36,0.70,0.50,0.50*05
$GPGSV,4,1,13,03,14,104,44,04,44,059,44,06,63,221,47,07,36,157,48*79
$GPGSV,4,2,13,09,79,063,51,11,42,301,43,16,03,066,34,19,07,220,42*72
$GPGSV,4,3,13,20,21,295,42,26,05,035,38,30,13,181,42,36,26,140,44*72
$GPGSV,4,4,13,49,33,172,46*40
$YXXDR,D,-0.03,M,Heave*29
$HEHDT,38.55,T*24
$TIROT,11.74,A*38
$GPGGA,184137.900,4915.50237,N,00015.42577,W,2,25,0.50,56.49,M,47.40,M,,*4A
$GPGLL,4915.50237,N,00015.42577,W,184137.900,A,D*42
$GPRMC,184137.900,A,4915.50237,N,00015.42577,W,4.25,38.82,160623,0.71,E,D*1A
$GPVTG,38.82,T,,M,4.25,N,7.87,K,D*02
$AGRSA,-2.66,A,,V*60
$WIMWV,9.99,R,7.89,N,A*2C
$WIMWV,9.99,R,7.89,N,A*2C
$HEHDT,38.56,T*27
$TIROT,11.23,A*3A
$YXXDR,A,38.56,D,Yaw,A,1.72,D,Pitch,A,1.05,D,Roll*58
$YXXDR,D,-0.02,M,Heave*28
$YXXDR,A,38.57,D,Yaw,A,1.72,D,Pitch,A,1.06,D,Roll*5A
$YXXDR,D,-0.02,M,Heave*28
$HEHDT,38.57,T*26
$TIROT,10.25,A*3D
$GPGGA,184138.200,4915.50262,N,00015.42544,W,2,25,0.50,56.49,M,47.40,M,,*4E
$GPGLL,4915.50262,N,00015.42544,W,184138.200,A,D*46
$GPRMC,184138.200,A,4915.50262,N,00015.42544,W,4.25,38.80,160623,0.71,E,D*1C
$GPVTG,38.80,T,,M,4.25,N,7.87,K,D*00
$AGRSA,-2.66,A,,V*60
$IIAPB,A,A,0.0020,L,N,V,V,39.4,M,72,36.5,M,36.5,M,A*78
$IIXTE,A,A,0.0020,L,N,A*16
$YXXDR,A,38.57,D,Yaw,A,1.73,D,Pitch,A,1.06,D,Roll*5B
$YXXDR,D,-0.02,M,Heave*28
$GPGGA,184138.300,4915.50270,N,00015.42534,W,2,25,0.50,56.49,M,47.40,M,,*4B
$GPGLL,4915.50270,N,00015.42534,W,184138.300,A,D*43
$GPRMC,184138.300,A,4915.50270,N,00015.42534,W,4.25,38.80,160623,0.71,E,D*19
$GPVTG,38.80,T,,M,4.25,N,7.87,K,D*00
$AGRSA,-2.75,A,,V*62
$WIMWV,9.99,R,7.89,N,A*2C
$WIMWV,9.99,R,7.89,N,A*2C
$WIXDR,C,22.50,C,Air,P,1.01739,B,Baro*2E
$WIXDR,C,22.50,C,Air,P,1.01700,B,Baro*24
$WIXDR,C,22.07,C,Air,P,1.01833,B,Baro*29
$YXXDR,A,38.57,D,Yaw,A,1.73,D,Pitch,A,1.07,D,Roll*5A
$YXXDR,D,-0.02,M,Heave*28
$HEHDT,38.57,T*26
$TIROT,9.37,A*06
$GPGGA,184138.400,4915.50279,N,00015.42522,W,2,25,0.50,56.49,M,47.40,M,,*42
$GPGLL,4915.50279,N,00015.42522,W,184138.400,A,D*4A
$GPRMC,184138.400,A,4915.50279,N,00015.42522,W,4.25,38.78,160623,0.71,E,D*17
$GPVTG,38.78,T,,M,4.25,N,7.87,K,D*07
$AGRSA,-2.71,A,,V*66
$YXXDR,A,38.57,D,Yaw,A,1.73,D,Pitch,A,1.05,D,Roll*58
$YXXDR,D,-0.02,M,Heave*28
$HEHDT,38.57,T*26
$TIROT,8.99,A*03
$GPGGA,184138.500,4915.50287,N,00015.42511,W,2,25,0.50,56.49,M,47.40,M,,*42
$GPGLL,4915.50287,N,00015.42511,W,184138.500,A,D*4A
$GPRMC,184138.500,A,4915.50287,N,00015.42511,W,4.25,38.78,160623,0.71,E,D*17
$GPVTG,38.78,T,,M,4.25,N,7.87,K,D*07
$AGRSA,-2.72,A,,V*65
$WIMWV,9.99,R,7.89,N,A*2C
$WIMWV,9.99,R,7.89,N,A*2C
$GPZDA,184138.580,16,06,2023,,*5E
$YXXDR,A,38.57,D,Yaw,A,1.74,D,Pitch,A,1.05,D,Roll*5F
$YXXDR,D,-0.02,M,Heave*28
$HEHDT,38.57,T*26
$TIROT,8.63,A*06
$YXXDR,A,38.56,D,Yaw,A,1.74,D,Pitch,A,1.06,D,Roll*5D
$YXXDR,D,-0.02,M,Heave*28
$HEHDT,38.56,T*27
$TIROT,8.28,A*09
$GPGGA,184138.700,4915.50304,N,00015.42489,W,2,25,0.50,56.42,M,47.40,M,,*41
$GPGLL,4915.50304,N,00015.42489,W,184138.700,A,D*42
$GPRMC,184138.700,A,4915.50304,N,00015.42489,W,4.25,38.77,160623,0.71,E,D*10
$GPVTG,38.77,T,,M,4.25,N,7.87,K,D*08
$AGRSA,-2.78,A,,V*6F
$WIMWV,9.99,R,7.89,N,A*2C
$WIMWV,9.99,R,7.89,N,A*2C
$HEHDT,38.56,T*27
$TIROT,7.94,A*01
$GPGGA,184138.800,4915.50312,N,00015.42478,W,2,25,0.50,56.42,M,47.40,M,,*47
$GPGLL,4915.50312,N,00015.42478,W,184138.800,A,D*44
$GPRMC,184138.800,A,4915.50312,N,00015.42478,W,4.25,38.77,160623,0.71,E,D*16
$GPVTG,38.77,T,,M,4.25,N,7.87,K,D*08
$AGRSA,-2.72,A,,V*65
$YXXDR,A,38.53,D,Yaw,A,1.73,D,Pitch,A,1.07,D,Roll*5E
$GPGSA,A,3,03,04,06,07,09,11,16,19,20,26,30,36,0.70,0.50,0.50*05
$GPGSV,4,1,13,03,14,104,44,04,44,059,44,06,63,221,47,07,36,157,48*79
$GPGSV,4,2,13,09,79,063,51,11,42,301,43,16,03,066,34,19,07,220,42*72
$GPGSV,4,3,13,20,21,295,43,26,05,035,38,30,13,181,42,36,26,140,44*73
$GPGSV,4,4,13,49,33,172,46*40
$YXXDR,D,-0.02,M,Heave*28
$HEHDT,38.53,T*22
$TIROT,7.62,A*08
$GPGGA,184138.900,4915.50330,N,00015.42460,W,2,25,0.50,56.42,M,47.40,M,,*4F
$GPGLL,4915.50330,N,00015.42460,W,184138.900,A,D*4C
$GPRMC,184138.900,A,4915.50330,N,00015.42460,W,4.25,38.76,160623,0.71,E,D*1F
$GPVTG,38.76,T,,M,4.25,N,7.87,K,D*09
$AGRSA,-2.78,A,,V*6F
$WIMWV,9.99,R,7.89,N,A*2C
$WIMWV,9.99,R,7.89,N,A*2C
$YXXDR,A,38.53,D,Yaw,A,1.73,D,Pitch,A,1.08,D,Roll*51
$YXXDR,D,-0.02,M,Heave*28
$GPGGA,184139.000,4915.50338,N,00015.42450,W,2,25,0.50,56.42,M,47.40,M,,*4C
$GPGLL,4915.50338,N,00015.42450,W,184139.000,A,D*4F
$GPRMC,184139.000,A,4915.50338,N,00015.42450,W,4.25,38.76,160623,0.71,E,D*1C
$GPVTG,38.76,T,,M,4.25,N,7.87,K,D*09
$AGRSA,-2.72,A,,V*65
$YXXDR,A,38.52,D,Yaw,A,1.71,D,Pitch,A,1.08,D,Roll*52
$YXXDR,D,-0.02,M,Heave*28
$GPGGA,184139.100,4915.50347,N,00015.42438,W,2,25,0.50,56.42,M,47.40,M,,*4B
$GPGLL,4915.50347,N,00015.42438,W,184139.100,A,D*48
$GPRMC,184139.100,A,4915.50347,N,00015.42438,W,4.25,38.76,160623,0.71,E,D*1B
$GPVTG,38.76,T,,M,4.25,N,7.87,K,D*09
$VDVBW,,,A,4.26,0.06,A,,A,0.03,A*4A
$AGRSA,-2.81,A,,V*69
$WIMWV,9.99,R,7.69,N,A*22
$WIMWV,9.99,R,7.69,N,A*22
$YXXDR,A,38.52,D,Yaw,A,1.72,D,Pitch,A,1.10,D,Roll*58
$YXXDR,D,-0.02,M,Heave*28
$HEHDT,38.52,T*23
$TIROT,6.54,A*0C
$GPGGA,184139.200,4915.50355,N,00015.42427,W,2,25,0.50,56.42,M,47.40,M,,*45
$GPGLL,4915.50355,N,00015.42427,W,184139.200,A,D*46
$GPRMC,184139.200,A,4915.50355,N,00015.42427,W,4.25,38.76,160623,0.71,E,D*15
$GPVTG,38.76,T,,M,4.25,N,7.87,K,D*09
$AGRSA,-2.75,A,,V*62
$IIAPB,A,A,0.0020,L,N,V,V,39.4,M,72,36.4,M,36.4,M,A*78
$IIXTE,A,A,0.0020,L,N,A*16
$GPGGA,184139.300,4915.50364,N,00015.42417,W,2,25,0.50,56.42,M,47.40,M,,*45
$GPGLL,4915.50364,N,00015.42417,W,184139.300,A,D*46
$GPRMC,184139.300,A,4915.50364,N,00015.42417,W,4.25,38.76,160623,0.71,E,D*15
$GPVTG,38.76,T,,M,4.25,N,7.87,K,D*09
$AGRSA,-2.66,A,,V*60
$WIMWV,9.99,R,7.69,N,A*22
$WIMWV,9.99,R,7.69,N,A*22
$WIXDR,C,22.50,C,Air,P,1.01739,B,Baro*2E
$WIXDR,C,22.50,C,Air,P,1.01700,B,Baro*24
$WIXDR,C,22.07,C,Air,P,1.01829,B,Baro*22
$YXXDR,A,38.53,D,Yaw,A,1.72,D,Pitch,A,1.08,D,Roll*50
$YXXDR,D,-0.02,M,Heave*28
$HEHDT,38.53,T*22
$TIROT,5.72,A*0B
$GPGGA,184139.400,4915.50372,N,00015.42405,W,2,25,0.50,56.42,M,47.40,M,,*46
$GPGLL,4915.50372,N,00015.42405,W,184139.400,A,D*45
$GPRMC,184139.400,A,4915.50372,N,00015.42405,W,4.25,38.76,160623,0.71,E,D*16
$GPVTG,38.76,T,,M,4.25,N,7.87,K,D*09
$AGRSA,-2.78,A,,V*6F
$YXXDR,A,38.52,D,Yaw,A,1.72,D,Pitch,A,1.08,D,Roll*51
$YXXDR,D,-0.02,M,Heave*28
$HEHDT,38.52,T*23
$TIROT,5.30,A*0D
$GPGGA,184139.500,4915.50380,N,00015.42394,W,2,25,0.50,56.42,M,47.40,M,,*45
$GPGLL,4915.50380,N,00015.42394,W,184139.500,A,D*46
$GPRMC,184139.500,A,4915.50380,N,00015.42394,W,4.25,38.76,160623,0.71,E,D*15
$GPVTG,38.76,T,,M,4.25,N,7.87,K,D*09
$AGRSA,-2.75,A,,V*62
$WIMWV,9.99,R,7.69,N,A*22
$WIMWV,9.99,R,7.69,N,A*22
$GPZDA,184139.580,16,06,2023,,*5F
$YXXDR,D,-0.02,M,Heave*28
$HEHDT,38.53,T*22
$TIROT,4.88,A*0F
$GPGGA,184139.600,4915.50389,N,00015.42383,W,2,25,0.50,56.55,M,47.40,M,,*4F
$GPGLL,4915.50389,N,00015.42383,W,184139.600,A,D*4A
$GPRMC,184139.600,A,4915.50389,N,00015.42383,W,4.25,38.76,160623,0.71,E,D*19
$GPVTG,38.76,T,,M,4.25,N,7.87,K,D*09
$VDVBW,,,A,4.26,0.06,A,,A,0.02,A*4B
$AGRSA,-2.72,A,,V*65
$YXXDR,A,38.53,D,Yaw,A,1.71,D,Pitch,A,1.06,D,Roll*5D
$YXXDR,D,-0.02,M,Heave*28
$HEHDT,38.53,T*22
$TIROT,4.48,A*03
$GPGGA,184139.700,4915.50397,N,00015.42373,W,2,25,0.50,56.55,M,47.40,M,,*4E
$GPGLL,4915.50397,N,00015.42373,W,184139.700,A,D*4B
$GPRMC,184139.700,A,4915.50397,N,00015.42373,W,4.25,38.76,160623,0.71,E,D*18
$GPVTG,38.76,T,,M,4.25,N,7.87,K,D*09
$AGRSA,-2.72,A,,V*65
$WIMWV,10.99,R,7.79,N,A*1B
$WIMWV,10.99,R,7.79,N,A*1B
$YXXDR,A,38.53,D,Yaw,A,1.71,D,Pitch,A,1.05,D,Roll*5E
$YXXDR,D,-0.02,M,Heave*28
$HEHDT,38.53,T*22
$TIROT,4.09,A*06
$GPGGA,184139.800,4915.50406,N,00015.42361,W,2,25,0.50,56.55,M,47.40,M,,*4D
$GPGLL,4915.50406,N,00015.42361,W,184139.800,A,D*48
$GPRMC,184139.800,A,4915.50406,N,00015.42361,W,4.25,38.76,160623,0.71,E,D*1B
$GPVTG,38.76,T,,M,4.25,N,7.87,K,D*09
$AGRSA,-2.78,A,,V*6F
$YXXDR,A,38.51,D,Yaw,A,1.70,D,Pitch,A,1.06,D,Roll*5E
$GPGSA,A,3,03,04,06,07,09,11,16,19,20,26,30,36,0.70,0.50,0.50*05
$GPGSV,4,1,13,03,14,104,44,04,44,059,44,06,63,221,47,07,36,157,48*79
$GPGSV,4,2,13,09,79,063,51,11,42,301,43,16,03,066,34,19,07,220,41*71
$GPGSV,4,3,13,20,21,295,43,26,05,035,38,30,13,181,42,36,26,140,44*73
$GPGSV,4,4,13,49,33,172,47*41
$HEHDT,38.51,T*20
$TIROT,4.09,A*06
$YXXDR,D,-0.02,M,Heave*28
$PSMDNC,R,C0508C00E8346436,7*3E
$GPGGA,184139.900,4915.50421,N,00015.42343,W,2,25,0.50,56.55,M,47.40,M,,*49
$GPGLL,4915.50421,N,00015.42343,W,184139.900,A,D*4C
$GPRMC,184139.900,A,4915.50421,N,00015.42343,W,4.25,38.77,160623,0.71,E,D*1E
$GPVTG,38.77,T,,M,4.25,N,7.87,K,D*08
$AGRSA,-2.75,A,,V*62
$WIMWV,10.99,R,7.79,N,A*1B
$WIMWV,10.99,R,7.79,N,A*1B
$YXXDR,A,38.51,D,Yaw,A,1.70,D,Pitch,A,1.07,D,Roll*5F
$YXXDR,D,-0.02,M,Heave*28
$HEHDT,38.51,T*20
$TIROT,3.41,A*0D
$PSMDNC,R,C0508C00E8355F3C,9*35
$GPGGA,184140.000,4915.50430,N,00015.42332,W,2,25,0.50,56.55,M,47.40,M,,*48
$GPGLL,4915.50430,N,00015.42332,W,184140.000,A,D*4D
$GPRMC,184140.000,A,4915.50430,N,00015.42332,W,4.25,38.77,160623,0.71,E,D*1F
$GPVTG,38.77,T,,M,4.25,N,7.87,K,D*08
$AGRSA,-2.78,A,,V*6F
$YXXDR,A,38.53,D,Yaw,A,1.70,D,Pitch,A,1.07,D,Roll*5D
$YXXDR,D,-0.02,M,Heave*28
$HEHDT,38.53,T*22
$TIROT,3.13,A*0A
$PSMDNC,R,C0A0C800E8372596,18*78
$GPGGA,184140.100,4915.50438,N,00015.42321,W,2,25,0.50,56.55,M,47.40,M,,*43
$GPGLL,4915.50438,N,00015.42321,W,184140.100,A,D*46
$GPRMC,184140.100,A,4915.50438,N,00015.42321,W,4.25,38.78,160623,0.71,E,D*1B
$GPVTG,38.78,T,,M,4.25,N,7.87,K,D*07
$VDVBW,,,A,4.26,0.06,A,,A,0.02,A*4B
$AGRSA,-2.72,A,,V*65
$WIMWV,10.99,R,7.79,N,A*1B
$WIMWV,10.99,R,7.79,N,A*1B
$YXXDR,A,38.54,D,Yaw,A,1.70,D,Pitch,A,1.07,D,Roll*5A
$YXXDR,D,-0.02,M,Heave*28
$HEHDT,38.54,T*25
$TIROT,2.87,A*06
$GPGGA,184140.200,4915.50446,N,00015.42310,W,2,25,0.50,56.55,M,47.40,M,,*4B
$GPGLL,4915.50446,N,00015.42310,W,184140.200,A,D*4E
$GPRMC,184140.200,A,4915.50446,N,00015.42310,W,4.25,38.78,160623,0.71,E,D*13
$GPVTG,38.78,T,,M,4.25,N,7.87,K,D*07
$AGRSA,-2.72,A,,V*65
$PSMDNC,R,C0A0BE00E835A596,14*79
$IIAPB,A,A,0.0020,L,N,V,V,39.4,M,72,36.3,M,36.3,M,A*78
$IIXTE,A,A,0.0020,L,N,A*16
$YXXDR,A,38.54,D,Yaw,A,1.71,D,Pitch,A,1.07,D,Roll*5B
$YXXDR,D,-0.02,M,Heave*28
$YXXDR,A,38.56,D,Yaw,A,1.71,D,Pitch,A,1.05,D,Roll*5B
$YXXDR,D,-0.02,M,Heave*28
$HEHDT,38.56,T*27
$TIROT,1.89,A*0B
$GPGGA,184140.700,4915.50488,N,00015.42254,W,2,25,0.50,56.36,M,47.40,M,,*48
$GPGLL,4915.50488,N,00015.42254,W,184140.700,A,D*48
$GPRMC,184140.700,A,4915.50488,N,00015.42254,W,4.27,38.82,160623,0.71,E,D*12
$GPVTG,38.82,T,,M,4.27,N,7.90,K,D*06
$AGRSA,-2.75,A,,V*62
$WIMWV,10.99,R,7.79,N,A*1B
$WIMWV,10.99,R,7.79,N,A*1B
$YXXDR,A,38.58,D,Yaw,A,1.70,D,Pitch,A,1.04,D,Roll*55
$YXXDR,D,-0.02,M,Heave*28
$GPGGA,184140.800,4915.50496,N,00015.42243,W,2,25,0.50,56.36,M,47.40,M,,*4E
$GPGLL,4915.50496,N,00015.42243,W,184140.800,A,D*4E
$GPRMC,184140.800,A,4915.50496,N,00015.42243,W,4.27,38.82,160623,0.71,E,D*14
$GPVTG,38.82,T,,M,4.27,N,7.90,K,D*06
$AGRSA,-2.72,A,,V*65
$HEHDT,38.57,T*26
$TIROT,1.79,A*04
$GPGGA,184140.900,4915.50512,N,00015.42226,W,2,25,0.50,56.36,M,47.40,M,,*41
$GPGLL,4915.50512,N,00015.42226,W,184140.900,A,D*41
$GPRMC,184140.900,A,4915.50512,N,00015.42226,W,4.27,38.84,160623,0.71,E,D*1D
$GPVTG,38.84,T,,M,4.27,N,7.90,K,D*00
$AGRSA,-2.78,A,,V*6F
$WIMWV,10.99,R,7.79,N,A*1B
$WIMWV,10.99,R,7.79,N,A*1B
$YXXDR,A,38.56,D,Yaw,A,1.71,D,Pitch,A,1.05,D,Roll*5B
$YXXDR,D,-0.02,M,Heave*28
$GPGGA,184141.000,4915.50520,N,00015.42215,W,2,25,0.50,56.36,M,47.40,M,,*48
$GPGLL,4915.50520,N,00015.42215,W,184141.000,A,D*48
$GPRMC,184141.000,A,4915.50520,N,00015.42215,W,4.27,38.84,160623,0.71,E,D*14
$GPVTG,38.84,T,,M,4.27,N,7.90,K,D*00
$AGRSA,-2.69,A,,V*6F
$YXXDR,A,38.57,D,Yaw,A,1.71,D,Pitch,A,1.04,D,Roll*5B
$YXXDR,D,-0.02,M,Heave*28
$GPGGA,184141.100,4915.50529,N,00015.42204,W,2,25,0.50,56.36,M,47.40,M,,*40
$GPGLL,4915.50529,N,00015.42204,W,184141.100,A,D*40
$GPRMC,184141.100,A,4915.50529,N,00015.42204,W,4.27,38.86,160623,0.71,E,D*1E
$GPVTG,38.86,T,,M,4.27,N,7.90,K,D*02
$VDVBW,,,A,4.27,0.06,A,,A,0.03,A*4B
$AGRSA,-2.78,A,,V*6F
$WIMWV,10.99,R,7.79,N,A*1B
$WIMWV,10.99,R,7.79,N,A*1B
$YXXDR,A,38.56,D,Yaw,A,1.72,D,Pitch,A,1.07,D,Roll*5A
$YXXDR,D,-0.02,M,Heave*28
$HEHDT,38.56,T*27
$TIROT,1.87,A*05
$GPGGA,184141.300,4915.50545,N,00015.42181,W,2,25,0.50,56.36,M,47.40,M,,*46
$GPGLL,4915.50545,N,00015.42181,W,184141.300,A,D*46
$GPRMC,184141.300,A,4915.50545,N,00015.42181,W,4.27,38.86,160623,0.71,E,D*18
$GPVTG,38.86,T,,M,4.27,N,7.90,K,D*02
$AGRSA,-2.71,A,,V*66
$WIMWV,10.99,R,7.79,N,A*1B
$WIMWV,10.99,R,7.79,N,A*1B
$WIXDR,C,22.50,C,Air,P,1.01739,B,Baro*2E
$WIXDR,C,22.50,C,Air,P,1.01700,B,Baro*24
$WIXDR,C,22.07,C,Air,P,1.01834,B,Baro*2E
$YXXDR,A,38.56,D,Yaw,A,1.72,D,Pitch,A,1.07,D,Roll*5A
$YXXDR,D,-0.02,M,Heave*28
$HEHDT,38.56,T*27
$TIROT,1.93,A*00
$GPGGA,184141.400,4915.50553,N,00015.42170,W,2,25,0.50,56.36,M,47.40,M,,*48
$GPGLL,4915.50553,N,00015.42170,W,184141.400,A,D*48
$GPRMC,184141.400,A,4915.50553,N,00015.42170,W,4.27,38.88,160623,0.71,E,D*18
$GPVTG,38.88,T,,M,4.27,N,7.90,K,D*0C
$AGRSA,-2.72,A,,V*65
$YXXDR,A,38.54,D,Yaw,A,1.72,D,Pitch,A,1.08,D,Roll*57
$YXXDR,D,-0.02,M,Heave*28
$HEHDT,38.54,T*25
$TIROT,1.98,A*0B
$GPGGA,184141.500,4915.50562,N,00015.42159,W,2,25,0.50,56.36,M,47.40,M,,*40
$GPGLL,4915.50562,N,00015.42159,W,184141.500,A,D*40
$GPRMC,184141.500,A,4915.50562,N,00015.42159,W,4.27,38.88,160623,0.71,E,D*10
$GPVTG,38.88,T,,M,4.27,N,7.90,K,D*0C
$AGRSA,-2.78,A,,V*6F
$WIMWV,10.99,R,7.79,N,A*1B
$WIMWV,10.99,R,7.79,N,A*1B
$GPZDA,184141.580,16,06,2023,,*50
$YXXDR,A,38.54,D,Yaw,A,1.72,D,Pitch,A,1.07,D,Roll*58
$YXXDR,D,-0.02,M,Heave*28
$HEHDT,38.54,T*25
$TIROT,1.99,A*0A
$GPGGA,184141.600,4915.50569,N,00015.42147,W,2,25,0.50,56.49,M,47.40,M,,*4F
$GPGLL,4915.50569,N,00015.42147,W,184141.600,A,D*47
$GPRMC,184141.600,A,4915.50569,N,00015.42147,W,4.27,38.91,160623,0.71,E,D*1F
$GPVTG,38.91,T,,M,4.27,N,7.90,K,D*04
$VDVBW,,,A,4.27,0.06,A,,A,0.03,A*4B
$AGRSA,-2.71,A,,V*66
$YXXDR,A,38.53,D,Yaw,A,1.73,D,Pitch,A,1.07,D,Roll*5E
$YXXDR,D,-0.02,M,Heave*28
$HEHDT,38.53,T*22
$TIROT,1.98,A*0B
$GPGGA,184141.700,4915.50578,N,00015.42136,W,2,25,0.50,56.49,M,47.40,M,,*48
$GPGLL,4915.50578,N,00015.42136,W,184141.700,A,D*40
$GPRMC,184141.700,A,4915.50578,N,00015.42136,W,4.27,38.91,160623,0.71,E,D*18
$GPVTG,38.91,T,,M,4.27,N,7.90,K,D*04
$AGRSA,-2.78,A,,V*6F
$WIMWV,10.99,R,7.79,N,A*1B
$WIMWV,10.99,R,7.79,N,A*1B
$YXXDR,A,38.51,D,Yaw,A,1.73,D,Pitch,A,1.06,D,Roll*5D
$YXXDR,D,-0.02,M,Heave*28
$HEHDT,38.51,T*20
$TIROT,1.92,A*01
$GPGSA,A,3,03,04,06,07,09,11,16,19,20,26,30,36,0.70,0.50,0.50*05
$GPGSV,4,1,13,03,14,104,44,04,44,059,44,06,63,221,47,07,36,157,48*79
$GPGSV,4,2,13,09,79,063,51,11,42,301,43,16,03,066,34,19,07,220,41*71
$GPGSV,4,3,13,20,21,295,43,26,05,035,38,30,13,181,42,36,26,140,44*73
$GPGSV,4,4,13,49,33,172,46*40
$YXXDR,D,-0.02,M,Heave*28
$HEHDT,38.51,T*20
$TIROT,1.82,A*00
$GPGGA,184141.900,4915.50605,N,00015.42108,W,2,25,0.50,56.49,M,47.40,M,,*42
$GPGLL,4915.50605,N,00015.42108,W,184141.900,A,D*4A
$GPRMC,184141.900,A,4915.50605,N,00015.42108,W,4.27,38.93,160623,0.71,E,D*10
$GPVTG,38.93,T,,M,4.27,N,7.90,K,D*06
$AGRSA,-2.75,A,,V*62
$WIMWV,10.99,R,7.79,N,A*1B
$WIMWV,10.99,R,7.79,N,A*1B
$YXXDR,A,38.50,D,Yaw,A,1.70,D,Pitch,A,1.03,D,Roll*5A
$YXXDR,D,-0.02,M,Heave*28
$HEHDT,38.50,T*21
$TIROT,1.70,A*0D
$GPGGA,184142.000,4915.50614,N,00015.42097,W,2,25,0.50,56.49,M,47.40,M,,*4F
$GPGLL,4915.50614,N,00015.42097,W,184142.000,A,D*47
$GPRMC,184142.000,A,4915.50614,N,00015.42097,W,4.27,38.93,160623,0.71,E,D*1D
$GPVTG,38.93,T,,M,4.27,N,7.90,K,D*06
$AGRSA,-2.78,A,,V*6F
$YXXDR,A,38.49,D,Yaw,A,1.70,D,Pitch,A,1.02,D,Roll*53
$YXXDR,D,-0.02,M,Heave*28
$HEHDT,38.49,T*29
$TIROT,1.54,A*0B
$GPGGA,184142.100,4915.50622,N,00015.42086,W,2,25,0.50,56.49,M,47.40,M,,*4B
$GPGLL,4915.50622,N,00015.42086,W,184142.100,A,D*43
$GPRMC,184142.100,A,4915.50622,N,00015.42086,W,4.27,38.96,160623,0.71,E,D*1C
$GPVTG,38.96,T,,M,4.27,N,7.90,K,D*03
$VDVBW,,,A,4.27,0.06,A,,A,0.03,A*4B
$AGRSA,-2.69,A,,V*6F
$WIMWV,10.99,R,7.79,N,A*1B
$WIMWV,10.99,R,7.79,N,A*1B
$YXXDR,A,38.48,D,Yaw,A,1.69,D,Pitch,A,1.03,D,Roll*5B
$YXXDR,D,-0.02,M,Heave*28
$HEHDT,38.48,T*28
$TIROT,1.35,A*0C
$YXXDR,A,38.46,D,Yaw,A,1.70,D,Pitch,A,1.05,D,Roll*5B
$YXXDR,D,-0.02,M,Heave*28
$WIXDR,C,22.07,C,Air,P,1.01834,B,Baro*2E
$YXXDR,A,38.45,D,Yaw,A,1.70,D,Pitch,A,1.05,D,Roll*58
$YXXDR,D,-0.02,M,Heave*28
$HEHDT,38.45,T*25
$TIROT,0.88,A*0B
$GPGGA,184142.400,4915.50647,N,00015.42052,W,2,25,0.50,56.49,M,47.40,M,,*44
$GPGLL,4915.50647,N,00015.42052,W,184142.400,A,D*4C
$GPRMC,184142.400,A,4915.50647,N,00015.42052,W,4.27,38.97,160623,0.71,E,D*12
$GPVTG,38.97,T,,M,4.27,N,7.90,K,D*02
$AGRSA,-2.75,A,,V*62
$YXXDR,A,38.45,D,Yaw,A,1.70,D,Pitch,A,1.07,D,Roll*5A
$YXXDR,D,-0.02,M,Heave*28
$HEHDT,38.45,T*25
$TIROT,0.62,A*0F
$GPGGA,184142.500,4915.50656,N,00015.42041,W,2,25,0.50,56.49,M,47.40,M,,*47
$GPGLL,4915.50656,N,00015.42041,W,184142.500,A,D*4F
$GPRMC,184142.500,A,4915.50656,N,00015.42041,W,4.27,38.97,160623,0.71,E,D*11
$GPVTG,38.97,T,,M,4.27,N,7.90,K,D*02
$AGRSA,-2.75,A,,V*62
$WIMWV,10.99,R,7.69,N,A*1A
$WIMWV,10.99,R,7.69,N,A*1A
$GPZDA,184142.580,16,06,2023,,*53
$YXXDR,A,38.44,D,Yaw,A,1.70,D,Pitch,A,1.07,D,Roll*5B
$YXXDR,D,-0.02,M,Heave*28
$HEHDT,38.44,T*24
$TIROT,0.33,A*0B
$GPGGA,184142.600,4915.50664,N,00015.42030,W,2,24,0.50,56.42,M,47.40,M,,*49
$GPGLL,4915.50664,N,00015.42030,W,184142.600,A,D*4B
$GPRMC,184142.600,A,4915.50664,N,00015.42030,W,4.27,39.00,160623,0.71,E,D*1A
$GPVTG,39.00,T,,M,4.27,N,7.90,K,D*0D
$VDVBW,,,A,4.27,0.06,A,,A,0.03,A*4B
$AGRSA,-2.84,A,,V*6C
$YXXDR,A,38.43,D,Yaw,A,1.70,D,Pitch,A,1.08,D,Roll*53
$YXXDR,D,-0.02,M,Heave*28
$HEHDT,38.43,T*23
$TIROT,0.01,A*0A
$GPGGA,184142.700,4915.50673,N,00015.42019,W,2,24,0.50,56.42,M,47.40,M,,*45
$GPGLL,4915.50673,N,00015.42019,W,184142.700,A,D*47
$GPRMC,184142.700,A,4915.50673,N,00015.42019,W,4.27,39.00,160623,0.71,E,D*16
$GPVTG,39.00,T,,M,4.27,N,7.90,K,D*0D
$AGRSA,-2.72,A,,V*65
$WIMWV,10.99,R,7.69,N,A*1A
$WIMWV,10.99,R,7.69,N,A*1A
$YXXDR,A,38.43,D,Yaw,A,1.70,D,Pitch,A,1.10,D,Roll*5A
$YXXDR,D,-0.02,M,Heave*28
$GPGGA,184142.800,4915.50681,N,00015.42008,W,2,24,0.50,56.42,M,47.40,M,,*47
$GPGLL,4915.50681,N,00015.42008,W,184142.800,A,D*45
$GPRMC,184142.800,A,4915.50681,N,00015.42008,W,4.27,39.00,160623,0.71,E,D*14
$GPVTG,39.00,T,,M,4.27,N,7.90,K,D*0D
$AGRSA,-2.78,A,,V*6F
$YXXDR,A,38.42,D,Yaw,A,1.67,D,Pitch,A,1.08,D,Roll*54
$GPGSA,A,3,03,04,06,07,09,11,16,19,20,26,30,36,0.70,0.50,0.50*05
$GPGSV,4,1,13,03,14,104,44,04,44,059,44,06,63,221,47,07,36,157,48*79
$GPGSV,4,2,13,09,79,063,51,11,42,301,43,16,03,066,34,19,07,220,41*71
$GPGSV,4,3,13,20,21,295,43,26,05,035,38,30,13,181,42,36,26,140,44*73
$GPGSV,4,4,13,49,33,172,46*40
$YXXDR,D,-0.02,M,Heave*28
$HEHDT,38.42,T*22
$TIROT,-0.62,A*22
$GPGGA,184142.900,4915.50699,N,00015.41992,W,2,24,0.50,56.42,M,47.40,M,,*46
$GPGLL,4915.50699,N,00015.41992,W,184142.900,A,D*44
$GPRMC,184142.900,A,4915.50699,N,00015.41992,W,4.27,39.02,160623,0.71,E,D*17
$GPVTG,39.02,T,,M,4.27,N,7.90,K,D*0F
$AGRSA,-2.75,A,,V*62
$WIMWV,9.99,R,7.89,N,A*2C
$WIMWV,9.99,R,7.89,N,A*2C
$YXXDR,A,38.41,D,Yaw,A,1.67,D,Pitch,A,1.09,D,Roll*56
$YXXDR,D,-0.02,M,Heave*28
$HEHDT,38.41,T*21
$TIROT,-0.96,A*29
$YXXDR,A,38.41,D,Yaw,A,1.68,D,Pitch,A,1.09,D,Roll*59
$YXXDR,D,-0.02,M,Heave*28
$HEHDT,38.41,T*21
$TIROT,-1.27,A*22
$GPGGA,184143.100,4915.50716,N,00015.41971,W,2,24,0.50,56.42,M,47.40,M,,*44
$GPGLL,4915.50716,N,00015.41971,W,184143.100,A,D*46
$GPRMC,184143.100,A,4915.50716,N,00015.41971,W,4.27,39.04,160623,0.71,E,D*13
$GPVTG,39.04,T,,M,4.27,N,7.90,K,D*09
$VDVBW,,,A,4.27,0.06,A,,A,0.04,A*4C
$AGRSA,-2.81,A,,V*69
$WIMWV,9.99,R,7.89,N,A*2C
$WIMWV,9.99,R,7.89,N,A*2C
$YXXDR,A,38.39,D,Yaw,A,1.67,D,Pitch,A,1.09,D,Roll*59
$YXXDR,D,-0.02,M,Heave*28
$HEHDT,38.39,T*2E
$TIROT,-1.55,A*27
$GPGGA,184143.200,4915.50725,N,00015.41960,W,2,24,0.50,56.42,M,47.40,M,,*47
$GPGLL,4915.50725,N,00015.41960,W,184143.200,A,D*45
$GPRMC,184143.200,A,4915.50725,N,00015.41960,W,4.27,39.04,160623,0.71,E,D*10
$GPVTG,39.04,T,,M,4.27,N,7.90,K,D*09
$AGRSA,-2.72,A,,V*65
$IIAPB,A,A,0.0020,L,N,V,V,39.4,M,72,36.0,M,36.0,M,A*78
$IIXTE,A,A,0.0020,L,N,A*16
$YXXDR,A,38.38,D,Yaw,A,1.67,D,Pitch,A,1.09,D,Roll*58
$YXXDR,D,-0.02,M,Heave*28
$HEHDT,38.38,T*2F
$TIROT,-1.81,A*2E
$WIXDR,C,22.07,C,Air,P,1.01833,B,Baro*29
$YXXDR,A,38.38,D,Yaw,A,1.67,D,Pitch,A,1.07,D,Roll*56
$YXXDR,D,-0.02,M,Heave*28
$HEHDT,38.38,T*2F
$TIROT,-2.04,A*20
$GPGGA,184143.400,4915.50743,N,00015.41938,W,2,24,0.50,56.42,M,47.40,M,,*4C
$GPGLL,4915.50743,N,00015.41938,W,184143.400,A,D*4E
$GPRMC,184143.400,A,4915.50743,N,00015.41938,W,4.27,39.06,160623,0.71,E,D*19
$GPVTG,39.06,T,,M,4.27,N,7.90,K,D*0B
$AGRSA,-2.78,A,,V*6F
$YXXDR,A,38.37,D,Yaw,A,1.66,D,Pitch,A,1.04,D,Roll*5B
$YXXDR,D,-0.02,M,Heave*28
$HEHDT,38.37,T*20
$TIROT,-2.25,A*23
$HEHDT,38.35,T*22
$TIROT,-2.45,A*25
$GPGGA,184143.600,4915.50759,N,00015.41916,W,2,24,0.50,56.49,M,47.40,M,,*42
$GPGLL,4915.50759,N,00015.41916,W,184143.600,A,D*4B
$GPRMC,184143.600,A,4915.50759,N,00015.41916,W,4.27,39.08,160623,0.71,E,D*12
$GPVTG,39.08,T,,M,4.27,N,7.90,K,D*05
$VDVBW,,,A,4.27,0.06,A,,A,0.04,A*4C
$AGRSA,-2.75,A,,V*62
$YXXDR,A,38.30,D,Yaw,A,1.66,D,Pitch,A,1.03,D,Roll*5B
$GPGSA,A,3,03,04,06,07,09,11,16,19,20,26,30,36,0.70,0.50,0.50*05
$GPGSV,4,1,13,03,14,104,44,04,44,059,44,06,63,221,47,07,36,157,48*79
$GPGSV,4,2,13,09,79,063,51,11,42,301,42,16,03,066,34,19,07,220,41*70
$GPGSV,4,3,13,20,21,295,43,26,05,035,38,30,13,181,42,36,26,140,44*73
$GPGSV,4,4,13,49,33,172,46*40
$YXXDR,D,-0.02,M,Heave*28
$WIXDR,C,22.07,C,Air,P,1.01833,B,Baro*29
$YXXDR,A,38.17,D,Yaw,A,1.65,D,Pitch,A,1.03,D,Roll*5D
$YXXDR,D,-0.02,M,Heave*28
$HEHDT,38.17,T*22
$TIROT,-3.82,A*2F
$GPGGA,184144.400,4915.50836,N,00015.41824,W,2,24,0.50,56.49,M,47.40,M,,*41
$GPGLL,4915.50836,N,00015.41824,W,184144.400,A,D*48
$GPRMC,184144.400,A,4915.50836,N,00015.41824,W,4.27,39.14,160623,0.71,E,D*1C
$GPVTG,39.14,T,,M,4.27,N,7.90,K,D*08
$AGRSA,-2.71,A,,V*66
$YXXDR,A,38.14,D,Yaw,A,1.65,D,Pitch,A,1.03,D,Roll*5E
$YXXDR,D,-0.02,M,Heave*28
$HEHDT,38.14,T*21
$TIROT,-4.06,A*24
$GPGGA,184144.500,4915.50845,N,00015.41814,W,2,24,0.50,56.49,M,47.40,M,,*47
$GPGLL,4915.50845,N,00015.41814,W,184144.500,A,D*4E
$GPRMC,184144.500,A,4915.50845,N,00015.41814,W,4.27,39.14,160623,0.71,E,D*1A
$GPVTG,39.14,T,,M,4.27,N,7.90,K,D*08
$AGRSA,-2.75,A,,V*62
$WIMWV,9.99,R,7.89,N,A*2C
$WIMWV,9.99,R,7.89,N,A*2C
$GPZDA,184144.580,16,06,2023,,*55
$YXXDR,A,38.11,D,Yaw,A,1.63,D,Pitch,A,1.03,D,Roll*5D
$YXXDR,D,-0.02,M,Heave*28
$HEHDT,38.11,T*24
$TIROT,-4.39,A*28
$GPGGA,184144.600,4915.50854,N,00015.41803,W,2,24,0.50,56.49,M,47.40,M,,*42
$GPGLL,4915.50854,N,00015.41803,W,184144.600,A,D*4B
$GPRMC,184144.600,A,4915.50854,N,00015.41803,W,4.27,39.16,160623,0.71,E,D*1D
$GPVTG,39.16,T,,M,4.27,N,7.90,K,D*0A
$VDVBW,,,A,4.28,0.06,A,,A,0.05,A*42
$AGRSA,-2.75,A,,V*62
$YXXDR,A,38.10,D,Yaw,A,1.64,D,Pitch,A,1.03,D,Roll*5B
$YXXDR,D,-0.02,M,Heave*28
$GPGGA,184144.700,4915.50862,N,00015.41791,W,2,24,0.50,56.49,M,47.40,M,,*42
$GPGLL,4915.50862,N,00015.41791,W,184144.700,A,D*4B
$GPRMC,184144.700,A,4915.50862,N,00015.41791,W,4.27,39.16,160623,0.71,E,D*1D
$GPVTG,39.16,T,,M,4.27,N,7.90,K,D*0A
$AGRSA,-2.69,A,,V*6F
$WIMWV,9.99,R,7.89,N,A*2C
$WIMWV,9.99,R,7.89,N,A*2C
$YXXDR,A,38.07,D,Yaw,A,1.63,D,Pitch,A,1.03,D,Roll*5A
$YXXDR,D,-0.02,M,Heave*28
$HEHDT,38.07,T*23
$TIROT,-5.21,A*20
$GPGGA,184144.800,4915.50871,N,00015.41781,W,2,24,0.50,56.49,M,47.40,M,,*4E
$GPGLL,4915.50871,N,00015.41781,W,184144.800,A,D*47
$GPRMC,184144.800,A,4915.50871,N,00015.41781,W,4.27,39.16,160623,0.71,E,D*11
$GPVTG,39.16,T,,M,4.27,N,7.90,K,D*0A
$AGRSA,-2.63,A,,V*65
$YXXDR,A,38.06,D,Yaw,A,1.59,D,Pitch,A,1.07,D,Roll*56
$GPGSA,A,3,03,04,06,07,09,11,16,19,20,26,30,36,0.70,0.50,0.50*05
$GPGSV,4,1,13,03,14,104,44,04,44,059,44,06,63,221,47,07,36,157,48*79
$GPGSV,4,2,13,09,79,063,51,11,42,301,43,16,03,066,35,19,07,220,41*70
$GPGSV,4,3,13,20,21,295,43,26,05,035,37,30,13,181,41,36,26,140,44*7F
$GPGSV,4,4,13,49,33,172,47*41
$YXXDR,D,-0.02,M,Heave*28
$HEHDT,38.06,T*22
$TIROT,-5.67,A*22
$GPGGA,184144.900,4915.50886,N,00015.41761,W,2,24,0.50,56.49,M,47.40,M,,*49
$GPGLL,4915.50886,N,00015.41761,W,184144.900,A,D*40
$GPRMC,184144.900,A,4915.50886,N,00015.41761,W,4.27,39.17,160623,0.71,E,D*17
$GPVTG,39.17,T,,M,4.27,N,7.90,K,D*0B
$AGRSA,-2.60,A,,V*66
$WIMWV,9.99,R,7.89,N,A*2C
$WIMWV,9.99,R,7.89,N,A*2C
$YXXDR,A,38.04,D,Yaw,A,1.59,D,Pitch,A,1.07,D,Roll*54
$YXXDR,D,-0.02,M,Heave*28
$HEHDT,38.04,T*20
$TIROT,-6.14,A*25
$GPGGA,184145.000,4915.50895,N,00015.41750,W,2,24,0.50,56.49,M,47.40,M,,*41
$GPGLL,4915.50895,N,00015.41750,W,184145.000,A,D*48
$GPRMC,184145.000,A,4915.50895,N,00015.41750,W,4.27,39.17,160623,0.71,E,D*1F
$GPVTG,39.17,T,,M,4.27,N,7.90,K,D*0B
$AGRSA,-2.60,A,,V*66
$YXXDR,A,38.02,D,Yaw,A,1.59,D,Pitch,A,1.08,D,Roll*5D
$YXXDR,D,-0.02,M,Heave*28
$HEHDT,38.02,T*26
$TIROT,-6.62,A*24
$GPGGA,184145.100,4915.50904,N,00015.41739,W,2,24,0.50,56.49,M,47.40,M,,*46
$GPGLL,4915.50904,N,00015.41739,W,184145.100,A,D*4F
$GPRMC,184145.100,A,4915.50904,N,00015.41739,W,4.27,39.19,160623,0.71,E,D*16
$GPVTG,39.19,T,,M,4.27,N,7.90,K,D*05
$VDVBW,,,A,4.28,0.05,A,,A,0.05,A*41
$AGRSA,-2.58,A,,V*6D
$WIMWV,10.99,R,7.79,N,A*1B
$WIMWV,10.99,R,7.79,N,A*1B
$YXXDR,D,-0.02,M,Heave*28
$YXXDR,A,38.00,D,Yaw,A,1.59,D,Pitch,A,1.07,D,Roll*50
$IIXTE,A,A,0.0019,L,N,A*1C
$YXXDR,D,-0.01,M,Heave*2B
$HEHDT,38.00,T*24
$TIROT,-7.52,A*26
$GPGGA,184145.300,4915.50921,N,00015.41716,W,2,24,0.50,56.49,M,47.40,M,,*4E
$GPGLL,4915.50921,N,00015.41716,W,184145.300,A,D*47
$GPRMC,184145.300,A,4915.50921,N,00015.41716,W,4.27,39.19,160623,0.71,E,D*1E
$GPVTG,39.19,T,,M,4.27,N,7.90,K,D*05
$AGRSA,-2.63,A,,V*65
$WIMWV,10.99,R,7.79,N,A*1B
$WIMWV,10.99,R,7.79,N,A*1B
$WIXDR,C,22.50,C,Air,P,1.01739,B,Baro*2E
$WIXDR,C,22.50,C,Air,P,1.01700,B,Baro*24
$WIXDR,C,22.06,C,Air,P,1.01832,B,Baro*29
$YXXDR,A,37.99,D,Yaw,A,1.59,D,Pitch,A,1.08,D,Roll*50
$YXXDR,D,-0.01,M,Heave*2B
$HEHDT,37.99,T*2B
$TIROT,-7.91,A*29
$GPGGA,184145.400,4915.50929,N,00015.41704,W,2,24,0.50,56.49,M,47.40,M,,*42
$GPGLL,4915.50929,N,00015.41704,W,184145.400,A,D*4B
$GPRMC,184145.400,A,4915.50929,N,00015.41704,W,4.27,39.21,160623,0.71,E,D*19
$GPVTG,39.21,T,,M,4.27,N,7.90,K,D*0E
$AGRSA,-2.58,A,,V*6D
$YXXDR,A,37.99,D,Yaw,A,1.59,D,Pitch,A,1.08,D,Roll*50
$YXXDR,D,-0.01,M,Heave*2B
$HEHDT,37.99,T*2B
$TIROT,-8.26,A*2A
$GPGGA,184145.500,4915.50938,N,00015.41693,W,2,24,0.50,56.49,M,47.40,M,,*4C
$GPGLL,4915.50938,N,00015.41693,W,184145.500,A,D*45
$GPRMC,184145.500,A,4915.50938,N,00015.41693,W,4.27,39.21,160623,0.71,E,D*17
$GPVTG,39.21,T,,M,4.27,N,7.90,K,D*0E
$AGRSA,-2.58,A,,V*6D
$WIMWV,11.99,R,7.58,N,A*19
$WIMWV,11.99,R,7.58,N,A*19
$GPZDA,184145.580,16,06,2023,,*54
$YXXDR,A,37.98,D,Yaw,A,1.59,D,Pitch,A,1.09,D,Roll*50
$YXXDR,D,-0.01,M,Heave*2B
$HEHDT,37.98,T*2A
$TIROT,-8.57,A*2C
$GPGGA,184145.600,4915.50948,N,00015.41683,W,2,24,0.50,56.55,M,47.40,M,,*44
$GPGLL,4915.50948,N,00015.41683,W,184145.600,A,D*40
$GPRMC,184145.600,A,4915.50948,N,00015.41683,W,4.27,39.22,160623,0.71,E,D*11
$GPVTG,39.22,T,,M,4.27,N,7.90,K,D*0D
$VDVBW,,,A,4.28,0.05,A,,A,0.06,A*42
$AGRSA,-2.58,A,,V*6D
$YXXDR,A,37.97,D,Yaw,A,1.58,D,Pitch,A,1.04,D,Roll*53
$YXXDR,D,-0.01,M,Heave*2B
$HEHDT,37.97,T*25
$TIROT,-8.82,A*24
$GPGGA,184145.700,4915.50957,N,00015.41671,W,2,24,0.50,56.55,M,47.40,M,,*46
$GPGLL,4915.50957,N,00015.41671,W,184145.700,A,D*42
$GPRMC,184145.700,A,4915.50957,N,00015.41671,W,4.27,39.22,160623,0.71,E,D*13
$GPVTG,39.22,T,,M,4.27,N,7.90,K,D*0D
$AGRSA,-2.56,A,,V*63
$WIMWV,11.99,R,7.58,N,A*19
$WIMWV,11.99,R,7.58,N,A*19
$YXXDR,A,37.96,D,Yaw,A,1.58,D,Pitch,A,0.97,D,Roll*59
$YXXDR,D,-0.01,M,Heave*2B
$HEHDT,37.96,T*24
$TIROT,-9.01,A*2E
$GPGGA,184145.800,4915.50966,N,00015.41660,W,2,24,0.50,56.55,M,47.40,M,,*4B
$GPGLL,4915.50966,N,00015.41660,W,184145.800,A,D*4F
$GPRMC,184145.800,A,4915.50966,N,00015.41660,W,4.27,39.22,160623,0.71,E,D*1E
$GPVTG,39.22,T,,M,4.27,N,7.90,K,D*0D
$AGRSA,-2.51,A,,V*64
$YXXDR,A,37.94,D,Yaw,A,1.59,D,Pitch,A,0.89,D,Roll*55
$GPGSA,A,3,03,04,06,07,09,11,16,19,20,26,30,36,0.70,0.50,0.50*05
$GPGSV,4,1,13,03,14,104,44,04,44,059,44,06,63,221,47,07,36,157,48*79
$GPGSV,4,2,13,09,79,062,51,11,42,301,43,16,03,066,35,19,07,220,41*71
$GPGSV,4,3,13,20,21,295,43,26,05,035,37,30,13,181,42,36,26,140,44*7C
$GPGSV,4,4,13,49,33,172,47*41
$YXXDR,D,-0.01,M,Heave*2B
$HEHDT,37.94,T*26
$TIROT,-9.14,A*2A
$GPGGA,184145.900,4915.50981,N,00015.41647,W,2,24,0.50,56.55,M,47.40,M,,*46
$GPGLL,4915.50981,N,00015.41647,W,184145.900,A,D*42
$GPRMC,184145.900,A,4915.50981,N,00015.41647,W,4.27,39.23,160623,0.71,E,D*12
$GPVTG,39.23,T,,M,4.27,N,7.90,K,D*0C
$AGRSA,-2.56,A,,V*63
$WIMWV,11.99,R,7.58,N,A*19
$WIMWV,11.99,R,7.58,N,A*19
$YXXDR,A,37.92,D,Yaw,A,1.60,D,Pitch,A,0.81,D,Roll*51
$YXXDR,D,-0.01,M,Heave*2B
$HEHDT,37.92,T*20
$TIROT,-9.19,A*27
$GPGGA,184146.000,4915.50989,N,00015.41636,W,2,24,0.50,56.55,M,47.40,M,,*42
$GPGLL,4915.50989,N,00015.41636,W,184146.000,A,D*46
$GPRMC,184146.000,A,4915.50989,N,00015.41636,W,4.27,39.23,160623,0.71,E,D*16
$GPVTG,39.23,T,,M,4.27,N,7.90,K,D*0C
$AGRSA,-2.51,A,,V*64
$YXXDR,A,37.91,D,Yaw,A,1.61,D,Pitch,A,0.73,D,Roll*5E
$YXXDR,D,-0.01,M,Heave*2B
$HEHDT,37.91,T*23
$TIROT,-9.17,A*29
$GPGGA,184146.100,4915.50998,N,00015.41624,W,2,24,0.50,56.55,M,47.40,M,,*40
$GPGLL,4915.50998,N,00015.41624,W,184146.100,A,D*44
$GPRMC,184146.100,A,4915.50998,N,00015.41624,W,4.27,39.24,160623,0.71,E,D*13
$GPVTG,39.24,T,,M,4.27,N,7.90,K,D*0B
$VDVBW,,,A,4.28,0.05,A,,A,0.07,A*43
$AGRSA,-2.51,A,,V*64
$WIMWV,12.99,R,7.58,N,A*1A
$WIMWV,12.99,R,7.58,N,A*1A
$YXXDR,A,37.88,D,Yaw,A,1.63,D,Pitch,A,0.67,D,Roll*51
$YXXDR,D,-0.01,M,Heave*2B
$HEHDT,37.88,T*2B
$TIROT,-9.11,A*2F
$GPGGA,184146.200,4915.51006,N,00015.41613,W,2,24,0.50,56.55,M,47.40,M,,*48
$GPGLL,4915.51006,N,00015.41613,W,184146.200,A,D*4C
$GPRMC,184146.200,A,4915.51006,N,00015.41613,W,4.27,39.24,160623,0.71,E,D*1B
$GPVTG,39.24,T,,M,4.27,N,7.90,K,D*0B
$AGRSA,-2.54,A,,V*61
$IIAPB,A,A,0.0019,L,N,V,V,39.4,M,72,35.7,M,35.7,M,A*72
$YXXDR,A,37.86,D,Yaw,A,1.65,D,Pitch,A,0.64,D,Roll*5A
$IIXTE,A,A,0.0019,L,N,A*1C
$YXXDR,D,-0.02,M,Heave*28
$HEHDT,37.86,T*25
$TIROT,-9.03,A*2C
$GPGGA,184146.300,4915.51015,N,00015.41601,W,2,24,0.50,56.55,M,47.40,M,,*48
$GPGLL,4915.51015,N,00015.41601,W,184146.300,A,D*4C
$GPRMC,184146.300,A,4915.51015,N,00015.41601,W,4.27,39.24,160623,0.71,E,D*1B
$GPVTG,39.24,T,,M,4.27,N,7.90,K,D*0B
$AGRSA,-2.46,A,,V*62
$WIMWV,12.99,R,7.58,N,A*1A
$WIMWV,12.99,R,7.58,N,A*1A
$WIXDR,C,22.50,C,Air,P,1.01739,B,Baro*2E
$WIXDR,C,22.50,C,Air,P,1.01700,B,Baro*24
$WIXDR,C,22.06,C,Air,P,1.01832,B,Baro*29
$YXXDR,A,37.83,D,Yaw,A,1.67,D,Pitch,A,0.66,D,Roll*5F
$YXXDR,D,-0.02,M,Heave*28
$HEHDT,37.83,T*20
$TIROT,-8.93,A*24
$GPGGA,184146.400,4915.51023,N,00015.41589,W,2,24,0.50,56.55,M,47.40,M,,*49
$GPGLL,4915.51023,N,00015.41589,W,184146.400,A,D*4D
$GPRMC,184146.400,A,4915.51023,N,00015.41589,W,4.29,39.25,160623,0.71,E,D*15
$GPVTG,39.25,T,,M,4.29,N,7.94,K,D*00
$AGRSA,-2.54,A,,V*61
$YXXDR,A,37.81,D,Yaw,A,1.71,D,Pitch,A,0.71,D,Roll*5C
$YXXDR,D,-0.02,M,Heave*28
$HEHDT,37.81,T*22
$TIROT,-8.83,A*25
$GPGGA,184146.500,4915.51032,N,00015.41578,W,2,24,0.50,56.55,M,47.40,M,,*46
$GPGLL,4915.51032,N,00015.41578,W,184146.500,A,D*42
$GPRMC,184146.500,A,4915.51032,N,00015.41578,W,4.29,39.25,160623,0.71,E,D*1A
$GPVTG,39.25,T,,M,4.29,N,7.94,K,D*00
$AGRSA,-2.37,A,,V*64
$WIMWV,12.99,R,7.58,N,A*1A
$WIMWV,12.99,R,7.58,N,A*1A
$GPZDA,184146.580,16,06,2023,,*57
$YXXDR,A,37.79,D,Yaw,A,1.73,D,Pitch,A,0.77,D,Roll*5F
$YXXDR,D,-0.02,M,Heave*28
$HEHDT,37.79,T*25
$TIROT,-8.75,A*2C
$YXXDR,A,37.77,D,Yaw,A,1.74,D,Pitch,A,0.84,D,Roll*5A
$YXXDR,D,-0.02,M,Heave*28
$HEHDT,37.77,T*2B
$TIROT,-8.71,A*28
$GPGGA,184146.700,4915.51049,N,00015.41555,W,2,24,0.50,56.49,M,47.40,M,,*4A
$GPGLL,4915.51049,N,00015.41555,W,184146.700,A,D*43
$GPRMC,184146.700,A,4915.51049,N,00015.41555,W,4.29,39.26,160623,0.71,E,D*18
$GPVTG,39.26,T,,M,4.29,N,7.94,K,D*03
$AGRSA,-2.29,A,,V*6B
$WIMWV,11.99,R,7.58,N,A*19
$WIMWV,11.99,R,7.58,N,A*19
$YXXDR,A,37.75,D,Yaw,A,1.76,D,Pitch,A,0.93,D,Roll*5C
$YXXDR,D,-0.02,M,Heave*28
$HEHDT,37.75,T*29
$TIROT,-8.72,A*2B
$GPGGA,184146.800,4915.51058,N,00015.41544,W,2,24,0.50,56.49,M,47.40,M,,*45
$GPGLL,4915.51058,N,00015.41544,W,184146.800,A,D*4C
$GPRMC,184146.800,A,4915.51058,N,00015.41544,W,4.29,39.26,160623,0.71,E,D*17
$GPVTG,39.26,T,,M,4.29,N,7.94,K,D*03
$AGRSA,-2.29,A,,V*6B
$YXXDR,A,37.74,D,Yaw,A,1.73,D,Pitch,A,0.99,D,Roll*52
$YXXDR,A,37.72,D,Yaw,A,1.73,D,Pitch,A,1.10,D,Roll*54
$YXXDR,D,-0.02,M,Heave*28
$HEHDT,37.72,T*2E
$TIROT,-8.87,A*21
$HEHDT,37.70,T*2C
$TIROT,-9.18,A*26
$GPGGA,184147.500,4915.51124,N,00015.41466,W,2,24,0.50,56.49,M,47.40,M,,*42
$GPGLL,4915.51124,N,00015.41466,W,184147.500,A,D*4B
$GPRMC,184147.500,A,4915.51124,N,00015.41466,W,4.29,39.26,160623,0.71,E,D*10
$GPVTG,39.26,T,,M,4.29,N,7.94,K,D*03
$AGRSA,-2.37,A,,V*64
$WIMWV,11.99,R,7.79,N,A*1A
$WIMWV,11.99,R,7.79,N,A*1A
$GPZDA,184147.580,16,06,2023,,*56
$YXXDR,D,-0.02,M,Heave*28
$HEHDT,37.68,T*25
$TIROT,-9.65,A*2C
$YXXDR,A,37.68,D,Yaw,A,1.74,D,Pitch,A,1.61,D,Roll*5E
$YXXDR,D,-0.02,M,Heave*28
$HEHDT,37.68,T*25
$TIROT,-9.69,A*20
$YXXDR,A,37.70,D,Yaw,A,1.73,D,Pitch,A,1.53,D,Roll*51
$YXXDR,D,-0.01,M,Heave*2B
$HEHDT,37.70,T*2C
$TIROT,-9.67,A*2E
$GPGGA,184147.800,4915.51150,N,00015.41431,W,2,24,0.50,56.49,M,47.40,M,,*4E
$GPGLL,4915.51150,N,00015.41431,W,184147.800,A,D*47
$GPRMC,184147.800,A,4915.51150,N,00015.41431,W,4.29,39.26,160623,0.71,E,D*1C
$GPVTG,39.26,T,,M,4.29,N,7.94,K,D*03
$AGRSA,-2.29,A,,V*6B
$YXXDR,A,37.70,D,Yaw,A,1.72,D,Pitch,A,1.55,D,Roll*56
$GPGSA,A,3,03,04,06,07,09,11,16,19,20,26,30,36,0.70,0.50,0.50*05
$GPGSV,4,1,13,03,14,105,44,04,44,059,44,06,63,221,47,07,37,157,48*79
$GPGSV,4,2,13,09,79,062,51,11,42,301,43,16,03,066,34,19,07,220,41*70
$GPGSV,4,3,13,20,21,295,43,26,05,035,38,30,13,181,42,36,26,140,44*73
$GPGSV,4,4,13,49,33,172,46*40
$YXXDR,D,-0.01,M,Heave*2B
$HEHDT,37.70,T*2C
$TIROT,-9.65,A*2C
$GPGGA,184147.900,4915.51163,N,00015.41422,W,2,24,0.50,56.49,M,47.40,M,,*4D
$GPGLL,4915.51163,N,00015.41422,W,184147.900,A,D*44
$GPRMC,184147.900,A,4915.51163,N,00015.41422,W,4.29,39.25,160623,0.71,E,D*1C
$GPVTG,39.25,T,,M,4.29,N,7.94,K,D*00
$AGRSA,-2.25,A,,V*67
$WIMWV,11.99,R,7.79,N,A*1A
$WIMWV,11.99,R,7.79,N,A*1A
$HEHDT,37.71,T*2D
$TIROT,-9.62,A*2B
$GPGGA,184148.000,4915.51171,N,00015.41410,W,2,24,0.50,56.49,M,47.40,M,,*49
$GPGLL,4915.51171,N,00015.41410,W,184148.000,A,D*40
$GPRMC,184148.000,A,4915.51171,N,00015.41410,W,4.29,39.25,160623,0.71,E,D*18
$GPVTG,39.25,T,,M,4.29,N,7.94,K,D*00
$AGRSA,-2.26,A,,V*64
$YXXDR,A,37.72,D,Yaw,A,1.69,D,Pitch,A,1.54,D,Roll*5F
$YXXDR,D,-0.02,M,Heave*28
$HEHDT,37.72,T*2E
$TIROT,-9.48,A*23
$YXXDR,A,37.74,D,Yaw,A,1.69,D,Pitch,A,1.58,D,Roll*55
$YXXDR,D,-0.02,M,Heave*28
$HEHDT,37.74,T*28
$TIROT,-9.26,A*2B
$GPGGA,184148.200,4915.51188,N,00015.41387,W,2,24,0.50,56.49,M,47.40,M,,*44
$GPGLL,4915.51188,N,00015.41387,W,184148.200,A,D*4D
$GPRMC,184148.200,A,4915.51188,N,00015.41387,W,4.29,39.23,160623,0.71,E,D*13
$GPVTG,39.23,T,,M,4.29,N,7.94,K,D*06
$AGRSA,-2.26,A,,V*64
$HEHDT,37.76,T*2A
$TIROT,-8.99,A*2E
$GPGGA,184148.300,4915.51196,N,00015.41375,W,2,24,0.50,56.49,M,47.40,M,,*47
$GPGLL,4915.51196,N,00015.41375,W,184148.300,A,D*4E
$GPRMC,184148.300,A,4915.51196,N,00015.41375,W,4.29,39.23,160623,0.71,E,D*10
$GPVTG,39.23,T,,M,4.29,N,7.94,K,D*06
$AGRSA,-2.22,A,,V*60
$WIMWV,11.99,R,7.98,N,A*15
$WIMWV,11.99,R,7.98,N,A*15
$WIXDR,C,22.50,C,Air,P,1.01739,B,Baro*2E
$WIXDR,C,22.50,C,Air,P,1.01700,B,Baro*24
$WIXDR,C,22.06,C,Air,P,1.01830,B,Baro*2B
$YXXDR,A,37.79,D,Yaw,A,1.69,D,Pitch,A,1.73,D,Roll*51
$YXXDR,D,-0.01,M,Heave*2B
$HEHDT,37.79,T*25
$TIROT,-8.62,A*2A
$GPGGA,184148.400,4915.51204,N,00015.41363,W,2,24,0.50,56.49,M,47.40,M,,*4F
$GPGLL,4915.51204,N,00015.41363,W,184148.400,A,D*46
$GPRMC,184148.400,A,4915.51204,N,00015.41363,W,4.29,39.21,160623,0.71,E,D*1A
$GPVTG,39.21,T,,M,4.29,N,7.94,K,D*04
$AGRSA,-2.19,A,,V*68
$YXXDR,A,37.80,D,Yaw,A,1.73,D,Pitch,A,1.89,D,Roll*59
$YXXDR,D,-0.01,M,Heave*2B
$HEHDT,37.80,T*23
$TIROT,-8.18,A*27
$GPGGA,184148.500,4915.51212,N,00015.41351,W,2,24,0.50,56.49,M,47.40,M,,*48
$GPGLL,4915.51212,N,00015.41351,W,184148.500,A,D*41
$GPRMC,184148.500,A,4915.51212,N,00015.41351,W,4.29,39.21,160623,0.71,E,D*1D
$GPVTG,39.21,T,,M,4.29,N,7.94,K,D*04
$AGRSA,-2.07,A,,V*67
$WIMWV,11.99,R,7.98,N,A*15
$WIMWV,11.99,R,7.98,N,A*15
$GPZDA,184148.580,16,06,2023,,*59
$YXXDR,A,37.80,D,Yaw,A,1.78,D,Pitch,A,2.08,D,Roll*58
$YXXDR,D,-0.02,M,Heave*28
$HEHDT,37.80,T*23
$TIROT,-7.69,A*2E
$GPGGA,184148.600,4915.51220,N,00015.41340,W,2,24,0.50,56.49,M,47.40,M,,*4A
$GPGLL,4915.51220,N,00015.41340,W,184148.600,A,D*43
$GPRMC,184148.600,A,4915.51220,N,00015.41340,W,4.29,39.20,160623,0.71,E,D*1E
$GPVTG,39.20,T,,M,4.29,N,7.94,K,D*05
$VDVBW,,,A,4.29,0.05,A,,A,0.08,A*4D
$AGRSA,-2.17,A,,V*66
$YXXDR,A,37.83,D,Yaw,A,1.82,D,Pitch,A,2.28,D,Roll*5C
$YXXDR,D,-0.02,M,Heave*28
$HEHDT,37.83,T*20
$TIROT,-7.14,A*24
$GPGGA,184148.700,4915.51229,N,00015.41329,W,2,24,0.50,56.49,M,47.40,M,,*4D
$GPGLL,4915.51229,N,00015.41329,W,184148.700,A,D*44
$GPRMC,184148.700,A,4915.51229,N,00015.41329,W,4.29,39.20,160623,0.71,E,D*19
$GPVTG,39.20,T,,M,4.29,N,7.94,K,D*05
$AGRSA,-2.17,A,,V*66
$WIMWV,11.99,R,8.08,N,A*13
$WIMWV,11.99,R,8.08,N,A*13
$PSMDNC,R,C0AA82003E60052B,32*04
$YXXDR,A,37.86,D,Yaw,A,1.88,D,Pitch,A,2.46,D,Roll*5B
$YXXDR,D,-0.02,M,Heave*28
$HEHDT,37.86,T*25
$TIROT,-6.54,A*21
$GPGGA,184148.800,4915.51238,N,00015.41318,W,2,24,0.50,56.49,M,47.40,M,,*40
$GPGLL,4915.51238,N,00015.41318,W,184148.800,A,D*49
$GPRMC,184148.800,A,4915.51238,N,00015.41318,W,4.29,39.20,160623,0.71,E,D*14
$GPVTG,39.20,T,,M,4.29,N,7.94,K,D*05
$AGRSA,-2.17,A,,V*66
$YXXDR,A,37.88,D,Yaw,A,1.91,D,Pitch,A,2.61,D,Roll*58
$GPGSA,A,3,03,04,06,07,09,11,16,19,20,26,30,36,0.70,0.50,0.50*05
$GPGSV,4,1,13,03,14,105,44,04,44,059,44,06,63,221,47,07,37,157,48*79
$GPGSV,4,2,13,09,79,062,51,11,42,301,43,16,03,066,34,19,07,220,41*70
$GPGSV,4,3,13,20,21,295,43,26,05,035,37,30,13,181,42,36,26,140,44*7C
$GPGSV,4,4,13,49,33,172,47*41
$YXXDR,D,-0.02,M,Heave*28
$HEHDT,37.88,T*2B
$TIROT,-5.88,A*23
$GPGGA,184148.900,4915.51253,N,00015.41308,W,2,24,0.50,56.49,M,47.40,M,,*4D
$GPGLL,4915.51253,N,00015.41308,W,184148.900,A,D*44
$GPRMC,184148.900,A,4915.51253,N,00015.41308,W,4.29,39.17,160623,0.71,E,D*1D
$GPVTG,39.17,T,,M,4.29,N,7.94,K,D*01
$AGRSA,-2.19,A,,V*68
$WIMWV,11.99,R,8.08,N,A*13
$WIMWV,11.99,R,8.08,N,A*13
$YXXDR,A,37.91,D,Yaw,A,1.91,D,Pitch,A,2.69,D,Roll*58
$YXXDR,D,-0.01,M,Heave*2B
$GPGGA,184149.000,4915.51262,N,00015.41296,W,2,24,0.50,56.49,M,47.40,M,,*41
$GPGLL,4915.51262,N,00015.41296,W,184149.000,A,D*48
$GPRMC,184149.000,A,4915.51262,N,00015.41296,W,4.29,39.17,160623,0.71,E,D*11
$GPVTG,39.17,T,,M,4.29,N,7.94,K,D*01
$AGRSA,-2.25,A,,V*67
$YXXDR,A,37.93,D,Yaw,A,1.88,D,Pitch,A,2.72,D,Roll*58
$YXXDR,D,-0.01,M,Heave*2B
$HEHDT,37.93,T*21
$TIROT,-4.36,A*27
$GPGGA,184149.100,4915.51271,N,00015.41286,W,2,24,0.50,56.49,M,47.40,M,,*43
$GPGLL,4915.51271,N,00015.41286,W,184149.100,A,D*4A
$GPRMC,184149.100,A,4915.51271,N,00015.41286,W,4.29,39.16,160623,0.71,E,D*12
$GPVTG,39.16,T,,M,4.29,N,7.94,K,D*00
$VDVBW,,,A,4.29,0.05,A,,A,0.08,A*4D
$AGRSA,-2.14,A,,V*65
$WIMWV,11.99,R,8.08,N,A*13
$WIMWV,11.99,R,8.08,N,A*13
$YXXDR,A,37.94,D,Yaw,A,1.85,D,Pitch,A,2.69,D,Roll*58
$YXXDR,D,-0.01,M,Heave*2B
$HEHDT,37.94,T*26
$TIROT,-3.63,A*20
$GPGGA,184149.200,4915.51279,N,00015.41274,W,2,24,0.50,56.49,M,47.40,M,,*45
$GPGLL,4915.51279,N,00015.41274,W,184149.200,A,D*4C
$GPRMC,184149.200,A,4915.51279,N,00015.41274,W,4.29,39.16,160623,0.71,E,D*14
$GPVTG,39.16,T,,M,4.29,N,7.94,K,D*00
$AGRSA,-2.51,A,,V*64
$YXXDR,A,37.95,D,Yaw,A,1.81,D,Pitch,A,2.61,D,Roll*55
$IIAPB,A,A,0.0018,L,N,V,V,39.4,M,72,35.6,M,35.6,M,A*73
$IIXTE,A,A,0.0018,L,N,A*1D
$YXXDR,D,-0.01,M,Heave*2B
$GPGGA,184149.300,4915.51288,N,00015.41263,W,2,24,0.50,56.49,M,47.40,M,,*4C
$GPGLL,4915.51288,N,00015.41263,W,184149.300,A,D*45
$GPRMC,184149.300,A,4915.51288,N,00015.41263,W,4.29,39.16,160623,0.71,E,D*1D
$GPVTG,39.16,T,,M,4.29,N,7.94,K,D*00
$AGRSA,-2.75,A,,V*62
$WIMWV,12.99,R,8.08,N,A*10
$WIMWV,12.99,R,8.08,N,A*10
$WIXDR,C,22.50,C,Air,P,1.01739,B,Baro*2E
$WIXDR,C,22.50,C,Air,P,1.01700,B,Baro*24
$WIXDR,C,22.06,C,Air,P,1.01830,B,Baro*2B
$YXXDR,A,37.95,D,Yaw,A,1.75,D,Pitch,A,2.53,D,Roll*5F
$YXXDR,D,-0.01,M,Heave*2B
$HEHDT,37.95,T*27
$TIROT,-2.11,A*24
$GPGGA,184149.400,4915.51296,N,00015.41252,W,2,24,0.50,56.49,M,47.40,M,,*46
$GPGLL,4915.51296,N,00015.41252,W,184149.400,A,D*4F
$GPRMC,184149.400,A,4915.51296,N,00015.41252,W,4.29,39.13,160623,0.71,E,D*12
$GPVTG,39.13,T,,M,4.29,N,7.94,K,D*05
$AGRSA,-2.66,A,,V*60
$YXXDR,A,37.94,D,Yaw,A,1.71,D,Pitch,A,2.42,D,Roll*5A
$YXXDR,D,-0.01,M,Heave*2B
$GPGGA,184149.500,4915.51305,N,00015.41241,W,2,24,0.50,56.49,M,47.40,M,,*4E
$GPGLL,4915.51305,N,00015.41241,W,184149.500,A,D*47
$GPRMC,184149.500,A,4915.51305,N,00015.41241,W,4.29,39.13,160623,0.71,E,D*1A
$GPVTG,39.13,T,,M,4.29,N,7.94,K,D*05
$AGRSA,-2.66,A,,V*60
$WIMWV,12.99,R,8.08,N,A*10
$WIMWV,12.99,R,8.08,N,A*10
$GPZDA,184149.580,16,06,2023,,*58
$YXXDR,A,37.95,D,Yaw,A,1.69,D,Pitch,A,2.32,D,Roll*55
$YXXDR,D,-0.01,M,Heave*2B
$GPGGA,184149.600,4915.51313,N,00015.41229,W,2,24,0.50,56.49,M,47.40,M,,*44
$GPGLL,4915.51313,N,00015.41229,W,184149.600,A,D*4D
$GPRMC,184149.600,A,4915.51313,N,00015.41229,W,4.29,39.12,160623,0.71,E,D*11
$GPVTG,39.12,T,,M,4.29,N,7.94,K,D*04
$VDVBW,,,A,4.29,0.05,A,,A,0.08,A*4D
$AGRSA,-2.46,A,,V*62
$YXXDR,A,37.94,D,Yaw,A,1.65,D,Pitch,A,2.24,D,Roll*5F
$YXXDR,D,-0.01,M,Heave*2B
$GPGGA,184149.700,4915.51322,N,00015.41218,W,2,24,0.50,56.49,M,47.40,M,,*45
$GPGLL,4915.51322,N,00015.41218,W,184149.700,A,D*4C
$GPRMC,184149.700,A,4915.51322,N,00015.41218,W,4.29,39.12,160623,0.71,E,D*10
$GPVTG,39.12,T,,M,4.29,N,7.94,K,D*04
$AGRSA,-2.29,A,,V*6B
$WIMWV,12.99,R,8.08,N,A*10
$WIMWV,12.99,R,8.08,N,A*10
$YXXDR,A,37.93,D,Yaw,A,1.63,D,Pitch,A,2.18,D,Roll*51
$YXXDR,D,-0.02,M,Heave*28
$GPGGA,184149.800,4915.51330,N,00015.41206,W,2,24,0.50,56.49,M,47.40,M,,*46
$GPGLL,4915.51330,N,00015.41206,W,184149.800,A,D*4F
$GPRMC,184149.800,A,4915.51330,N,00015.41206,W,4.29,39.12,160623,0.71,E,D*13
$GPVTG,39.12,T,,M,4.29,N,7.94,K,D*04
$AGRSA,-2.26,A,,V*64
$YXXDR,A,37.90,D,Yaw,A,1.62,D,Pitch,A,2.14,D,Roll*5F
$GPGSA,A,3,03,04,06,07,09,11,16,19,20,26,30,36,0.70,0.50,0.50*05
$GPGSV,4,1,13,03,14,105,45,04,44,059,44,06,63,221,47,07,37,157,48*78
$GPGSV,4,2,13,09,79,062,51,11,42,301,44,16,03,066,34,19,07,220,41*77
$GPGSV,4,3,13,20,21,295,43,26,05,035,37,30,14,181,42,36,26,140,43*7C
$GPGSV,4,4,13,49,33,172,46*40
$YXXDR,D,-0.02,M,Heave*28
$HEHDT,37.90,T*22
$TIROT,1.63,A*0F
$GPGGA,184149.900,4915.51344,N,00015.41194,W,2,24,0.50,56.49,M,47.40,M,,*4C
$GPGLL,4915.51344,N,00015.41194,W,184149.900,A,D*45
$GPRMC,184149.900,A,4915.51344,N,00015.41194,W,4.29,39.10,160623,0.71,E,D*1B
$GPVTG,39.10,T,,M,4.29,N,7.94,K,D*06
$AGRSA,-2.25,A,,V*67
$WIMWV,13.99,R,8.08,N,A*11
$WIMWV,13.99,R,8.08,N,A*11
$YXXDR,A,37.90,D,Yaw,A,1.63,D,Pitch,A,2.16,D,Roll*5C
$YXXDR,D,-0.02,M,Heave*28
$HEHDT,37.90,T*22
$TIROT,2.14,A*0C
$GPGGA,184150.000,4915.51352,N,00015.41183,W,2,24,0.50,56.49,M,47.40,M,,*4C
$GPGLL,4915.51352,N,00015.41183,W,184150.000,A,D*45
$GPRMC,184150.000,A,4915.51352,N,00015.41183,W,4.29,39.10,160623,0.71,E,D*1B
$GPVTG,39.10,T,,M,4.29,N,7.94,K,D*06
$AGRSA,-2.26,A,,V*64
$YXXDR,D,-0.02,M,Heave*28
$HEHDT,37.98,T*2A
$TIROT,2.84,A*05
$YXXDR,A,38.00,D,Yaw,A,1.66,D,Pitch,A,2.66,D,Roll*58
$YXXDR,D,-0.02,M,Heave*28
$HEHDT,38.00,T*24
$TIROT,2.70,A*0E
$GPGGA,184150.800,4915.51423,N,00015.41094,W,2,24,0.50,56.55,M,47.40,M,,*4F
$GPGLL,4915.51423,N,00015.41094,W,184150.800,A,D*4B
$GPRMC,184150.800,A,4915.51423,N,00015.41094,W,4.29,39.06,160623,0.71,E,D*12
$GPVTG,39.06,T,,M,4.29,N,7.94,K,D*01
$AGRSA,-2.46,A,,V*62
$YXXDR,A,38.03,D,Yaw,A,1.59,D,Pitch,A,2.74,D,Roll*54
$GPGGA,184151.000,4915.51446,N,00015.41070,W,2,24,0.50,56.55,M,47.40,M,,*4F
$GPGLL,4915.51446,N,00015.41070,W,184151.000,A,D*4B
$GPRMC,184151.000,A,4915.51446,N,00015.41070,W,4.29,39.06,160623,0.71,E,D*12
$GPVTG,39.06,T,,M,4.29,N,7.94,K,D*01
$AGRSA,-2.46,A,,V*62
$YXXDR,A,38.06,D,Yaw,A,1.55,D,Pitch,A,2.79,D,Roll*50
$YXXDR,D,-0.02,M,Heave*28
$HEHDT,38.06,T*22
$TIROT,2.49,A*04
$GPGGA,184151.100,4915.51455,N,00015.41060,W,2,24,0.50,56.55,M,47.40,M,,*4D
$GPGLL,4915.51455,N,00015.41060,W,184151.100,A,D*49
$GPRMC,184151.100,A,4915.51455,N,00015.41060,W,4.29,39.07,160623,0.71,E,D*11
$GPVTG,39.07,T,,M,4.29,N,7.94,K,D*00
$VDVBW,,,A,4.29,0.06,A,,A,0.07,A*41
$AGRSA,-2.46,A,,V*62
$WIMWV,14.99,R,8.08,N,A*16
$WIMWV,14.99,R,8.08,N,A*16
$YXXDR,A,38.09,D,Yaw,A,1.55,D,Pitch,A,2.78,D,Roll*5E
$YXXDR,D,-0.02,M,Heave*28
$HEHDT,38.09,T*2D
$TIROT,2.68,A*07
$GPGGA,184151.200,4915.51464,N,00015.41050,W,2,24,0.50,56.55,M,47.40,M,,*4F
$GPGLL,4915.51464,N,00015.41050,W,184151.200,A,D*4B
$GPRMC,184151.200,A,4915.51464,N,00015.41050,W,4.29,39.07,160623,0.71,E,D*13
$GPVTG,39.07,T,,M,4.29,N,7.94,K,D*00
$AGRSA,-2.51,A,,V*64
$YXXDR,A,38.10,D,Yaw,A,1.56,D,Pitch,A,2.75,D,Roll*58
$IIAPB,A,A,0.0017,L,N,V,V,39.4,M,72,35.2,M,35.2,M,A*7C
$YXXDR,D,-0.01,M,Heave*2B
$IIXTE,A,A,0.0017,L,N,A*12
$YXXDR,D,-0.01,M,Heave*2B
$HEHDT,38.10,T*25
$TIROT,3.30,A*0B
$YXXDR,A,38.13,D,Yaw,A,1.56,D,Pitch,A,2.66,D,Roll*59
$YXXDR,D,-0.01,M,Heave*2B
$HEHDT,38.13,T*26
$TIROT,3.68,A*06
$GPGGA,184151.500,4915.51491,N,00015.41017,W,2,24,0.50,56.55,M,47.40,M,,*41
$GPGLL,4915.51491,N,00015.41017,W,184151.500,A,D*45
$GPRMC,184151.500,A,4915.51491,N,00015.41017,W,4.29,39.08,160623,0.71,E,D*12
$GPVTG,39.08,T,,M,4.29,N,7.94,K,D*0F
$AGRSA,-2.49,A,,V*6D
$WIMWV,14.99,R,8.28,N,A*14
$WIMWV,14.99,R,8.28,N,A*14
$GPZDA,184151.580,16,06,2023,,*51
$YXXDR,A,38.13,D,Yaw,A,1.57,D,Pitch,A,2.62,D,Roll*5C
$YXXDR,D,-0.02,M,Heave*28
$HEHDT,38.13,T*26
$TIROT,4.07,A*08
$GPGGA,184151.600,4915.51499,N,00015.41006,W,2,24,0.50,56.49,M,47.40,M,,*47
$GPGLL,4915.51499,N,00015.41006,W,184151.600,A,D*4E
$GPRMC,184151.600,A,4915.51499,N,00015.41006,W,4.29,39.08,160623,0.71,E,D*19
$GPVTG,39.08,T,,M,4.29,N,7.94,K,D*0F
$VDVBW,,,A,4.28,0.06,A,,A,0.07,A*40
$AGRSA,-2.41,A,,V*65
$YXXDR,A,38.12,D,Yaw,A,1.58,D,Pitch,A,2.59,D,Roll*5A
$YXXDR,D,-0.02,M,Heave*28
$HEHDT,38.12,T*27
$TIROT,4.44,A*0F
$GPGGA,184151.700,4915.51509,N,00015.40996,W,2,24,0.50,56.49,M,47.40,M,,*4F
$GPGLL,4915.51509,N,00015.40996,W,184151.700,A,D*46
$GPRMC,184151.700,A,4915.51509,N,00015.40996,W,4.29,39.08,160623,0.71,E,D*11
$GPVTG,39.08,T,,M,4.29,N,7.94,K,D*0F
$AGRSA,-2.46,A,,V*62
$WIMWV,14.99,R,8.28,N,A*14
$WIMWV,14.99,R,8.28,N,A*14
$YXXDR,A,38.12,D,Yaw,A,1.58,D,Pitch,A,2.55,D,Roll*56
$YXXDR,D,-0.01,M,Heave*2B
$HEHDT,38.12,T*27
$TIROT,4.81,A*06
$YXXDR,A,38.10,D,Yaw,A,1.58,D,Pitch,A,2.53,D,Roll*52
$GPGSA,A,3,03,04,06,07,09,11,16,19,20,26,29,30,0.70,0.50,0.50*0B
$GPGSV,4,1,14,03,14,105,45,04,44,059,43,06,63,221,47,07,37,157,48*78
$GPGSV,4,2,14,09,79,062,51,11,43,301,44,16,03,066,34,19,07,220,41*71
$GPGSV,4,3,14,20,21,295,43,26,05,035,37,29,01,345,28,30,14,181,42*7A
$GPGSV,4,4,14,36,26,140,43,49,33,172,46*74
$HEHDT,38.10,T*25
$TIROT,4.81,A*06
$YXXDR,D,-0.01,M,Heave*2B
$GPGGA,184151.900,4915.51530,N,00015.40967,W,2,24,0.50,56.49,M,47.40,M,,*45
$GPGLL,4915.51530,N,00015.40967,W,184151.900,A,D*4C
$GPRMC,184151.900,A,4915.51530,N,00015.40967,W,4.29,39.09,160623,0.71,E,D*1A
$GPVTG,39.09,T,,M,4.29,N,7.94,K,D*0E
$AGRSA,-2.46,A,,V*62
$WIMWV,14.99,R,8.28,N,A*14
$WIMWV,14.99,R,8.28,N,A*14
$YXXDR,A,38.09,D,Yaw,A,1.55,D,Pitch,A,2.52,D,Roll*56
$YXXDR,D,-0.01,M,Heave*2B
$HEHDT,38.09,T*2D
$TIROT,5.50,A*0B
$GPGGA,184152.000,4915.51539,N,00015.40956,W,2,24,0.50,56.49,M,47.40,M,,*44
$GPGLL,4915.51539,N,00015.40956,W,184152.000,A,D*4D
$GPRMC,184152.000,A,4915.51539,N,00015.40956,W,4.29,39.09,160623,0.71,E,D*1B
$GPVTG,39.09,T,,M,4.29,N,7.94,K,D*0E
$AGRSA,-2.49,A,,V*6D
$YXXDR,A,38.09,D,Yaw,A,1.51,D,Pitch,A,2.50,D,Roll*50
$YXXDR,D,-0.01,M,Heave*2B
$HEHDT,38.09,T*2D
$TIROT,5.77,A*0E
$GPGGA,184152.100,4915.51549,N,00015.40946,W,2,24,0.50,56.49,M,47.40,M,,*43
$GPGLL,4915.51549,N,00015.40946,W,184152.100,A,D*4A
